object_id,image_id,latitude,longitude,name,human_label_id,updatedat,createdat,label_id,label,subtype,labeledby,markerpov_heading,markerpov_pitch,markerpov_zoom
61fd90bae32410ca59028ecc,old_GuildTourSample,40.747760637833416,-73.9772538378243,Juhyoung,62ed76b9ebdcf3581458c542,2022-08-05 19:59:53.706,2022-08-05 19:59:53.706,sampleMarker,stairs,,Test,0,-3.488843017661179,1.0000000000000002
621400ad4fc1636344cacaf8,9d4b064a-c424-421c-a857-8ac64ab856e1,40.740080676139584,-73.9920882689441,zoing,622d0613c22d36b0ce946085,2022-03-12 20:44:03.814,2022-03-12 20:44:03.814,c5956167-f2bb-4416-9c14-8dc4f3cb4e37,door,Double,Jay,0,-5.802876389829674,1.0000000000000002
621400be4fc1636344cacb11,34b1dc09-dcb5-4345-ad6f-97716fa280c9,40.74000262935675,-73.99190330572205,zoing,622d062ec22d36b0ce9460ac,2022-03-12 20:44:30.546,2022-03-12 20:44:30.546,58addc1e-b321-4338-8a84-cd05304a26b4,door,Double,Jay,0,-7.512356903336199,1.0000000000000002
6214597b4fc1636344cacb8d,1adf4b68-08f5-4809-97cd-c7605fa98f15,40.728402627758605,-73.98931489746919,kevin chau,622d1894c22d36b0ce94716d,2022-03-12 22:03:00.759,2022-03-12 22:03:00.759,f2d962f7-1e30-408b-a6b5-47f63feea5a8,door,Double,elmtang,0,-6.553131149420117,1.0000000000000002
621459874fc1636344cacb9e,46290012-8291-4e67-811c-93879873891b,40.72854017148186,-73.98923205556274,kevin chau,622d1898c22d36b0ce947287,2022-03-12 22:03:04.53,2022-03-12 22:03:04.53,b5774128-cd7b-4b5f-b2cf-ba4e795f043b,door,Single,elmtang,0,-5.091975979551511,1.0000000000000002
621459924fc1636344cacbb2,a75dcca7-164b-4148-a45f-db49214d5b55,40.72845842826045,-73.98903898699663,kevin chau,622d189cc22d36b0ce9473b3,2022-03-12 22:03:08.435,2022-03-12 22:03:08.435,6e358aaa-2352-4193-90ef-04a2e7a19b91,door,Single,elmtang,0,-7.7332451296494735,1.0000000000000002
6214599b4fc1636344cacbcb,cbede9ca-4ff1-44b1-9d0b-277ef31dba0a,40.728359937018816,-73.98880508893407,kevin chau,622d18a2c22d36b0ce9474eb,2022-03-12 22:03:14.161,2022-03-12 22:03:14.161,a7a969c3-59ea-4ccd-a47a-2f2b867a5c54,door,Double,elmtang,0,2.7022092473919495,1.0000000000000002
621459be4fc1636344cacbee,fdf576a2-6591-40ed-b1fb-e738ece9d0d3,40.72823610886992,-73.98851202250964,kevin chau,622d18a6c22d36b0ce947635,2022-03-12 22:03:18.019,2022-03-12 22:03:18.019,194eaf63-fd1a-45dd-88b6-4168b0be14af,knob,Vertical Bar,elmtang,0,-5.04490551341936,1.0244717418524232
621459c84fc1636344cacc0e,91328823-81ba-487c-9046-bc55450c27b7,40.728103924211204,-73.98860515451811,kevin chau,622d18adc22d36b0ce94776b,2022-03-12 22:03:25.437,2022-03-12 22:03:25.437,c4a74b9a-7e23-42ee-8db4-768386245a10,door,Single,elmtang,0,-3.8071539161766355,1.0000000000000002
621459d14fc1636344cacc35,6bdfa42b-495c-42bd-bf61-8b96a4f1ac0f,40.72801137120141,-73.98838694621016,Brittany,622d26bcc22d36b0ce947c83,2022-03-12 23:03:24.06,2022-03-12 23:03:24.06,0e897620-c782-446a-b0a9-b46bf503043d,door,Double,Brittany,0,-4.127438319711698,1.0000000000000002
621c527f40a13518fececc31,89e64ded-4244-4e4b-896e-a81f80abf502,40.74621739918494,-73.99305790131389,Brittany,622d26c5c22d36b0ce947cfa,2022-03-12 23:03:33.7,2022-03-12 23:03:33.7,918d3eae-b380-434a-9b5b-c59ed65c32c1,door,Single,elmtang,0,-5.173533911986215,1.0000000000000002
621c529740a13518fececc50,6dbd2c8e-c7c6-4b6d-b2c6-8cfe6ee752a9,40.74636338947409,-73.99300110364938,Brittany,622d26d1c22d36b0ce947d87,2022-03-12 23:03:45.065,2022-03-12 23:03:45.065,94218fb9-8825-4ac3-98a2-1335e067dccc,door,Double,elmtang,0,-5.313344630368455,1.0000000000000002
621e80277df45a1568be08b5,f083bd1a-aafa-43a8-90a8-9266c59f04a2,40.712550862566836,-74.00950054983078,zoing,622d0b13c22d36b0ce946903,2022-03-12 21:05:23.504,2022-03-12 21:05:23.504,2f3b48d0-9bd7-47cf-9eb0-5d165ce1a088,door,Double,kevin chau,0,10.136385452256023,1.0000000000000002
621e80cc7df45a1568be0912,f4c3a7fc-4dd9-4a33-b44c-8c7787a672da,40.7135198305494,-74.01120195751265,zoing,622d0b52c22d36b0ce9469a4,2022-03-12 21:06:26.082,2022-03-12 21:06:26.082,08967568-d6b7-457c-b420-b0fde46620b4,door,Double,kevin chau,0,-1.1556523238554355,1.0000000000000002
621e819f7df45a1568be0958,1ce623a9-02f8-44e3-aac5-9d652e2c6ace,40.713626496551285,-74.0114380057187,Brittany,622d26dbc22d36b0ce947e1f,2022-03-12 23:03:55.492,2022-03-12 23:03:55.492,24a1cc09-c7c9-48e1-be69-6c01a7e27299,stairs,,kevin chau,0,-6.172283520895319,1.0000000000000002
621e81d27df45a1568be09b0,5d2b1ec7-89bc-4197-b4d5-1f53d6884bd7,40.71420364582443,-74.00953862080534,Brittany,622d26eac22d36b0ce947eab,2022-03-12 23:04:10.791,2022-03-12 23:04:10.791,5dc065d3-2899-431c-8c61-c0a88b07ced2,door,Double,elmtang,0,-3.6678895073088684,1.0000000000000002
621e81d47df45a1568be09b4,ead54e20-6ca4-40a0-9461-47dbed4ce3d4,40.714054638718125,-74.01233762350049,zoing,622d0b91c22d36b0ce946b97,2022-03-12 21:07:29.232,2022-03-12 21:07:29.232,891f58e3-0473-410b-95d7-7348485188b9,door,Revolving,elmtang,0,-0.9275824342481773,1.0000000000000002
621e81fb7df45a1568be09f0,300e9550-f2bf-443c-89e0-3d6875ae6fe1,40.71421695553748,-74.00956818660606,Brittany,622d26fcc22d36b0ce947f63,2022-03-12 23:04:28.232,2022-03-12 23:04:28.232,90f0720e-a425-4572-a794-bdc3e88ed5b1,door,Double,elmtang,0,-3.8482497938099662,1.0000000000000002
621e821d7df45a1568be0ab2,d72fda0c-ccc3-4fc0-aad3-44ecb919281e,40.713991487839166,-74.01270284664851,Jay,622d731bb5608a193e33080e,2022-03-13 04:29:15.165,2022-03-13 04:29:15.165,2c1f671d-e75d-4ee1-a8ad-d18cd712b471,door,Single,Brittany,0,-0.5241649359288526,1.0000000000000002
621e824e7df45a1568be0b33,824cbb96-49c7-45f5-b2d9-9a9dcb598e62,40.71407222478287,-74.01288300302019,Jay,622d732fb5608a193e330847,2022-03-13 04:29:35.508,2022-03-13 04:29:35.508,18a52ecd-bd2b-4285-830e-6ab3ef3acc6b,door,Single,Brittany,0,-0.10730009524766843,1.0000000000000002
621e82697df45a1568be0b50,2d23b8d1-cd9f-4576-9204-60a1e9ad049b,40.71425577172992,-74.00965377668888,tort,626af03b759390b99f0e6ffa,2022-04-28 19:51:23.871,2022-04-28 19:51:23.871,b3d28e78-ac76-4813-8d35-ab5829a373b4,door,Double,elmtang,0,-3.4711183195257216,1.0000000000000002
621e82917df45a1568be0be3,7a077931-58a1-43c0-a893-0686deef6140,40.714864911545824,-74.01312852768527,elmtang,623243cf633e93fd4a1a09d8,2022-03-16 20:08:47.055,2022-03-16 20:08:47.055,1f43aca5-3d56-4056-a18a-7131d006d6e2,door,Double,kevin chau,0,-5.235084562603048,1.0000000000000002
621e82cd7df45a1568be0c78,9e022ceb-fa9b-440f-9ed4-f251fdb56911,40.715385025182684,-74.01410295165462,elmtang,623243d4633e93fd4a1a0a4a,2022-03-16 20:08:52.461,2022-03-16 20:08:52.461,6e0120b4-208f-423d-9746-68c539d5d330,door,Double,Brittany,0,-2.934924362377462,1.0000000000000002
621e82e67df45a1568be0d01,84985812-aa00-4fff-8d9a-6909d5ec8fed,40.715385025182684,-74.01410295165462,Hiba,623afb98546e3cfc6f52ddd4,2022-03-23 10:51:04.338,2022-03-23 10:51:04.338,27825fe0-c5ae-431c-95eb-246a201dbbc8,door,Single,kevin chau,0,-3.590755283266079,1.0000000000000002
621e83527df45a1568be0daf,1af0291a-e97f-4326-a90b-452bd5ec8d49,40.7154309917212,-74.01567916090191,elmtang,62324bde633e93fd4a1a0aca,2022-03-16 20:43:10.545,2022-03-16 20:43:10.545,8059e43f-fd69-45b4-afbe-5f008e08b04a,door,Single,Brittany,0,-4.669984736955643,1.0000000000000002
621e83757df45a1568be0e5e,7674ebb5-aa6f-4ed9-85db-60591d6a6d4b,40.71509184242542,-74.01596212405158,elmtang,62324bf0633e93fd4a1a0b4d,2022-03-16 20:43:28.816,2022-03-16 20:43:28.816,0152a8de-9fff-49af-ae38-90503c9ac2ca,door,Double,Brittany,0,-5.195260942060125,1.0000000000000002
621e83b77df45a1568be0f1c,a3e0fe5c-d06f-45a3-b570-56e7f05c69ac,40.71500008343748,-74.01601520201015,Hiba,623afbb0546e3cfc6f52deb5,2022-03-23 10:51:28.086,2022-03-23 10:51:28.086,8ccd6339-57ae-4321-ad59-8afbce1d0a71,door,Double,Brittany,0,-3.850121280647704,1.0000000000000002
621e84347df45a1568be10de,3c02068a-c524-4c93-b10a-7503c081f46b,40.7147866856379,-74.01490101007842,Hiba,623afba7546e3cfc6f52de45,2022-03-23 10:51:19.56,2022-03-23 10:51:19.56,d24ac9ba-d790-4b04-8365-be3a5098622b,door,Revolving,kevin chau,0,-6.322533450167876,1.0000000000000002
621e847f7df45a1568be124d,b3c2214a-d7a7-44b2-9864-bf4df92b636a,40.70886450789062,-74.00270069045214,Hiba,623afbb7546e3cfc6f52df2f,2022-03-23 10:51:35.442,2022-03-23 10:51:35.442,083bfbcd-2c76-433a-a7f1-cf854b3c9c09,stairs,,kevin chau,0,-7.02749312842374,1.0000000000000002
621e85757df45a1568be13c0,7a88f43c-7a18-4a26-a2fa-68c326deb728,40.71421707120965,-74.00956844438956,Victor,623b8c60a61faf95eaee8dae,2022-03-23 21:08:48.992,2022-03-23 21:08:48.992,be4301b4-fb8f-410b-9703-04abe0420ded,door,Double,Brittany,0,-3.8886318034428498,1.0000000000000002
621e85887df45a1568be13e4,dd4585cc-72c5-4dbf-b306-c4fbf2be6297,40.76184001366764,-73.98095656021921,Hiba,623afbc3546e3cfc6f52e04c,2022-03-23 10:51:47.56,2022-03-23 10:51:47.56,c4c69fc6-6851-40ca-95ec-7c064b3288f3,door,Revolving,Thamm,0,-5.645509689994656,1.0000000000000002
621e85a57df45a1568be142c,90f65052-8bc1-4bad-8c51-6b15f6e20f10,40.76188009601201,-73.98105185036289,Hiba,623afbc6546e3cfc6f52e0f9,2022-03-23 10:51:50.556,2022-03-23 10:51:50.556,d36dea7e-89b8-4b5e-aaab-0fba646d3ca4,door,Revolving,Thamm,0,-5.385377854091403,1.0000000000000002
621e85a87df45a1568be1432,1ef17185-c1d7-4053-915e-7e619d945292,40.76188078334582,-73.98105348440511,Victor,623b8c82a61faf95eaee8df3,2022-03-23 21:09:22.372,2022-03-23 21:09:22.372,6774bcf0-2017-49cf-8d77-9f9816bed2a3,door,Revolving,Brittany,0,-5.404014847103627,1.0000000000000002
621e85ad7df45a1568be1465,ae67e947-2ee1-4a52-8c52-f3f08c3fde8b,40.75989949787767,-73.96900146710563,Hiba,623afbce546e3cfc6f52e217,2022-03-23 10:51:58.969,2022-03-23 10:51:58.969,bed100ab-49dd-45b4-b4cf-552169cd6db6,door,Single,Brittany,0,-6.40721973447884,1.0000000000000002
621e85ba7df45a1568be14a2,44d434fa-2992-4398-bf17-6d659ef58ad0,40.760987371768174,-73.97943395485166,Hiba,623afbd3546e3cfc6f52e2bc,2022-03-23 10:52:03.792,2022-03-23 10:52:03.792,cecade39-a319-4ec6-9684-4bada7edefa2,door,Double,Brittany,0,-2.9357158067124436,1.0000000000000002
621e85c57df45a1568be14b8,bb5c376a-e288-4d64-a260-236d31a1b5c4,40.762032666750564,-73.9814125345588,Hiba,623afbd8546e3cfc6f52e358,2022-03-23 10:52:08.592,2022-03-23 10:52:08.592,0150c206-f64c-4dab-b228-3ffeaa3fe586,door,Single,Thamm,0,-6.560115634122699,1.0000000000000002
621e85e47df45a1568be14ea,39f3456c-04f3-43d3-b1b6-3cf3fceaa191,40.71472339094101,-74.00938256316647,Victor,623b8cd8a61faf95eaee8e18,2022-03-23 21:10:48.155,2022-03-23 21:10:48.155,d87084e3-e183-4303-a32c-781ef52bee7a,door,Double,Victor,0,-3.2923873653434423,1.0000000000000002
621e85f27df45a1568be151d,a8ee63b9-b613-4f1f-b038-a1de93aa5b5f,40.762523001560496,-73.98258531184798,Hiba,623afc0b546e3cfc6f52e4b8,2022-03-23 10:52:59.819,2022-03-23 10:52:59.819,eeb5c41a-05ad-4b63-8469-02327a5ac114,door,Single,Thamm,0,-5.234700246473339,1.0000000000000002
621e86237df45a1568be159b,283fa9b9-a675-43ce-95ad-2f9572e3e2f3,40.76929218823843,-73.95216678298308,Hiba,623afc0f546e3cfc6f52e56d,2022-03-23 10:53:03.49,2022-03-23 10:53:03.49,c841c894-c8c2-4060-96ff-ae20243cde11,door,Single,davidlxp,0,-3.3167174321327737,1.0000000000000002
621e862f7df45a1568be15a9,4fc435ed-fdb0-43d2-98fb-6215676ac63c,40.73177677231224,-74.00298082747683,Hiba,623afc17546e3cfc6f52e62f,2022-03-23 10:53:11.228,2022-03-23 10:53:11.228,95661941-a43d-4a44-a266-e1ede5c1fc07,door,Single,tort,0,-8.497553249281708,1.0000000000000002
621e868b7df45a1568be1610,ea895ecc-c81f-4bd3-a3fc-a2d2854baa66,40.76962413964703,-73.95192449277998,Jay,623bc74e8d0365b1e210a019,2022-03-24 01:20:14.931,2022-03-24 01:20:14.931,bcde79c4-4567-49df-8ef2-1dbaea379bd3,door,Double,davidlxp,0,-3.748322647772353,1.9755282581475768
621e86ab7df45a1568be162d,1b5011a7-4da4-4e77-a270-30b376053c54,40.72850618504398,-73.98915163350492,Jay,623bc77a8d0365b1e210a07c,2022-03-24 01:20:58.115,2022-03-24 01:20:58.115,299f1d4d-d0d5-46a1-b1a9-c44e820681de,door,Double,Jay,0,5.489241002503507,1.0000000000000002
621e86dc7df45a1568be1683,5f5b5103-87b2-4b0e-b19f-3978876afd0d,40.83463016089525,-73.93980474601555,Jay,623bc7828d0365b1e210a0e7,2022-03-24 01:21:06.736,2022-03-24 01:21:06.736,3a37be90-2db2-478f-b6e2-8d8ddb44b774,door,Double,tort,0,-3.6228717230394896,1.0000000000000002
621e86e47df45a1568be16c1,8fd13736-f295-493c-8a49-cfbf4f2251be,40.76273723444664,-73.97728047849566,elmtang,6247a30f38e2b68f5dd4c9ab,2022-04-02 01:12:47.598,2022-04-02 01:12:47.598,b70118af-cc3b-4dbc-a2e7-cc511a1a0f82,door,Double,elmtang,0,-6.603354546949884,1.0000000000000002
621e86ef7df45a1568be16e9,50c5321e-569c-4732-8ca3-b1cb4e539ff4,40.76002878899504,-73.96888019904722,elmtang,6247a33838e2b68f5dd4ca47,2022-04-02 01:13:28.78,2022-04-02 01:13:28.78,ac87bb8d-d1ad-48c3-b4e5-ee932b28e983,door,Double,Victor,0,-7.660346119894266,1.0000000000000002
621e870a7df45a1568be172b,e7bd611d-57a0-433f-b926-e12eba7cd65b,40.769840737898875,-73.95176693796836,elmtang,6247a36f38e2b68f5dd4cae7,2022-04-02 01:14:23.931,2022-04-02 01:14:23.931,1bdbc866-78f6-4101-b6e0-dac64980fbb3,door,Single,Victor,0,-3.3242616805116305,1.0000000000000002
621e87167df45a1568be1749,4f6ad1bd-135b-4890-8662-198ff2f1d658,40.76287986949042,-73.98343420606219,elmtang,6247a38938e2b68f5dd4cb8c,2022-04-02 01:14:49.614,2022-04-02 01:14:49.614,f6d55e75-8564-4e1a-8f0d-acd93910ea7a,door,Revolving,Victor,0,-3.850743772020975,1.0000000000000002
621e87257df45a1568be1783,58dbac51-8c02-48bd-9c2e-8a025e5e490a,40.833503683272966,-73.94030146240951,Victor,623b8dfba61faf95eaee902a,2022-03-23 21:15:39.715,2022-03-23 21:15:39.715,715f0a28-d761-4f93-bb24-1a490af1f047,door,Single,tort,0,-1.1404047566907778,1.0000000000000002
621e872c7df45a1568be179d,9cf6d4b7-6e73-40c2-99c1-ee240cb5eb6a,40.76297914530535,-73.98366931346197,elmtang,6247a2d538e2b68f5dd4c8fe,2022-04-02 01:11:49.505,2022-04-02 01:11:49.505,019cdb6d-de58-47d5-9e3f-7b42167eacfd,door,Revolving,Thamm,0,-5.287873242615958,2
621e874c7df45a1568be1841,c12e5e7b-8df5-4e03-8fcf-d28ab685eb0f,40.769983847932366,-73.95166269494779,elmtang,6247a3ae38e2b68f5dd4cc35,2022-04-02 01:15:26.392,2022-04-02 01:15:26.392,82a8296a-7a6f-4553-ad1f-b8ec29c63d97,door,Single,Victor,0,-1.68707914717883,2
621e87697df45a1568be1861,935eb974-7b30-4478-b362-96f31d12bfc0,40.85065084615532,-73.93696681868359,elmtang,6247a3e538e2b68f5dd4ccee,2022-04-02 01:16:21.971,2022-04-02 01:16:21.971,bc2c19ff-3a37-4d4f-922a-9409c7a22a1e,door,Single,Brittany,0,-7.004504885692968,2
621e87857df45a1568be1895,3e902c72-2919-4af5-9631-ca53690a81a6,40.759899552315204,-73.96900159715074,elmtang,6247a3fe38e2b68f5dd4ce6a,2022-04-02 01:16:46.628,2022-04-02 01:16:46.628,5ca26dca-a6ec-4b72-8e0e-3068bf65d119,door,Single,Victor,0,-6.19058712709783,1.0000000000000002
621e879e7df45a1568be1903,a09a1691-ded2-472b-a52c-d2ab58bfd653,40.770018037995435,-73.95163781403268,elmtang,6247a43b38e2b68f5dd4cf36,2022-04-02 01:17:47.496,2022-04-02 01:17:47.496,0e4a1c79-e5be-4a1a-a656-03097ef725fa,door,Double,Victor,0,-1.7703268513420274,2
621e87e27df45a1568be19da,cf19bdea-1938-41b0-8900-30933b3d0cac,40.76069230733068,-73.97044632412684,elmtang,6247a45138e2b68f5dd4d002,2022-04-02 01:18:09.434,2022-04-02 01:18:09.434,ea3ff55d-ac06-475d-9a96-847b7c48a995,door,Double,elmtang,0,-7.485178927179285,1.0000000000000002
621e87f27df45a1568be1a68,f2cb718d-796e-4129-b6c8-9eb862efa264,40.770258026243546,-73.95146359091954,elmtang,6247a46338e2b68f5dd4d0cd,2022-04-02 01:18:27.394,2022-04-02 01:18:27.394,48b640fb-6d6c-410c-9ce2-a8e6590c77dc,door,Single,Victor,0,-4.403612827229766,2
621e87fb7df45a1568be1ab3,25c686ce-bf74-407c-9905-6d87d69c1430,40.83397420633174,-73.94102867182856,elmtang,6247a47338e2b68f5dd4d1a4,2022-04-02 01:18:43.959,2022-04-02 01:18:43.959,81969ec3-cace-4627-bc18-073c6500a357,door,Single,Victor,0,-3.871469036092382,1.030825002080213
621e88027df45a1568be1ac8,3479f57b-5892-4d55-899c-165cd55defcd,40.77029903482768,-73.95143352607884,elmtang,6247a4ae38e2b68f5dd4d279,2022-04-02 01:19:42.325,2022-04-02 01:19:42.325,7c535462-fb00-479f-9880-fb5412c34961,door,Single,elmtang,0,-3.9969128675658023,2
621e88177df45a1568be1be3,ce45435e-2586-49a4-a6dc-3b67b0d7025d,40.76074633684684,-73.9705733190679,Gavin,62537a462c2fb43021fc5633,2022-04-11 00:45:58.074,2022-04-11 00:45:58.074,0162961b-13cc-42d3-9252-0fdfe5c6694c,door,Single,Gavin,0,-9.139675429999864,1.0000000000000002
621e881f7df45a1568be1bfc,e3812a42-41b8-487a-8beb-ad681cd480b2,40.835290267271816,-73.94425079813759,Gavin,62537a802c2fb43021fc56d5,2022-04-11 00:46:56.891,2022-04-11 00:46:56.891,e597d47b-bf1c-4be8-8906-159148d049a9,door,Single,tort,0,-4.057515668964198,1.0000000000000004
621e883b7df45a1568be1cbe,96c67e1b-5193-47c5-b2a6-6ee2acd78bf5,40.760785512727544,-73.97066540126903,Gavin,62537aec2c2fb43021fc5932,2022-04-11 00:48:44.404,2022-04-11 00:48:44.404,d1c1e217-29ec-47e6-a597-db86ba416e6a,door,Double,pchen,0,-9.42477142816141,1.0000000000000002
621e883f7df45a1568be1d06,916fbccb-6992-4daa-b856-d08ff2e4b0e1,40.834573432520045,-73.94481006436283,Gavin,62537b262c2fb43021fc5a3a,2022-04-11 00:49:42.827,2022-04-11 00:49:42.827,1bf32c7f-013b-4366-bc8c-16d29db4fd51,door,Automatic,Victor,0,-4.568604678014797,1.0000000000000004
621e885d7df45a1568be1d54,be7019b9-06b2-49b1-b0f3-8f52203304db,40.834422800257684,-73.94492050768356,Gavin,62537b612c2fb43021fc5afd,2022-04-11 00:50:41.566,2022-04-11 00:50:41.566,c3d094e2-432e-49a2-93b0-63f1e21ac854,door,Single,tort,0,-4.807207588758599,1.0000000000000004
621e88887df45a1568be1e92,409d720e-b69c-432f-a540-c4b745d26a7b,40.76085396775988,-73.97082674477524,Gavin,62537b722c2fb43021fc5bc8,2022-04-11 00:50:58.603,2022-04-11 00:50:58.603,1e2af928-f76c-4baa-9639-a57605b35203,door,Double,Victor,0,-8.114600233392999,1.0000000000000002
621e88897df45a1568be1e96,5e14dd52-c5f3-4f4e-94db-f71e5e57c0e6,40.77035953602338,-73.95138917043805,Gavin,62537b8a2c2fb43021fc5c8b,2022-04-11 00:51:22.443,2022-04-11 00:51:22.443,086996ae-ab53-404a-9692-f337b8c6ca71,door,Single,Victor,0,-5.095416680367878,2
621e88c97df45a1568be1fd8,5ca9abd2-5fbf-4f2e-a1d4-d58e7d451874,40.7704302523913,-73.9513373255621,Gavin,62537be52c2fb43021fc5d5c,2022-04-11 00:52:53.495,2022-04-11 00:52:53.495,7d509231-b3c5-4366-8e0d-1c0dac8aab77,door,Single,Gavin,0,-4.589669413169337,2
621e88e67df45a1568be20f8,ddc101d3-53e1-4f20-a528-3bf619cc7c8f,40.839304127746004,-73.94076551910085,Gavin,62537beb2c2fb43021fc5e37,2022-04-11 00:52:59.338,2022-04-11 00:52:59.338,4d056a66-d0b4-4846-b650-21a71fef2c94,door,Double,tort,0,-3.7070587911544215,1.0000000000000004
621e88e67df45a1568be20fc,770ddfde-0d38-4a36-be2d-348d86534def,40.761504728308786,-73.97239880432566,Gavin,62537bfa2c2fb43021fc5f17,2022-04-11 00:53:14.119,2022-04-11 00:53:14.119,923890da-3832-43aa-b5ec-12803be804a9,door,Single,pchen,0,-7.354316036028978,1.0000000000000002
621e88ef7df45a1568be2165,9ae20cbd-3457-4b79-b414-5518cd62ed30,40.77062213484753,-73.95119658188608,Gavin,62537c222c2fb43021fc5ff5,2022-04-11 00:53:54.215,2022-04-11 00:53:54.215,ca46a991-640d-42fc-bab2-4c07934b437f,door,Single,davidlxp,0,-3.376969120594213,2
621e88f57df45a1568be216c,23b139d6-ef23-41be-8b9c-fc61a556cd72,40.71409865056856,-74.00930783124379,Gavin,62537db92c2fb43021fc6a25,2022-04-11 01:00:41.612,2022-04-11 01:00:41.612,d0f10c36-0892-467f-9b57-66bedfde2aa1,door,Double,minshinkhant,0,-0.6487192247851735,1.0000000000000002
621e89287df45a1568be233e,6735bb99-9d4b-4478-b597-a7fed9f20ca1,40.745832293589594,-73.99173516158763,Gavin,62537dda2c2fb43021fc6b56,2022-04-11 01:01:14.484,2022-04-11 01:01:14.484,bb5a8fa2-5a4f-4deb-b806-42009e3e9dc0,door,Single,Victor,0,-5.378430614868445,1.0000000000000002
621e89357df45a1568be2383,3ec78e5b-dbd5-43a0-bad8-a998e192f5fe,40.76162148187931,-73.97267565757609,Gavin,62537df52c2fb43021fc6c82,2022-04-11 01:01:41.94,2022-04-11 01:01:41.94,fe335ecf-bb60-4f8f-9f49-0ba75f921dee,door,Double,Victor,0,-5.560220888055019,1.0000000000000002
621e893f7df45a1568be23e6,d9a4c865-2535-423a-8a52-c0243a48ccc9,40.83958970912952,-73.94055570412318,Gavin,62537e0a2c2fb43021fc6d9b,2022-04-11 01:02:02.229,2022-04-11 01:02:02.229,2e6661d1-5498-4206-bd4f-1ab0fb39e86e,door,Double,Victor,0,-3.833505612364681,1.0000000000000002
621e89467df45a1568be240b,498d11df-ebc1-4893-9f8f-e5ee00ad018f,40.76313212502142,-73.98403227940157,Gavin,62537e1c2c2fb43021fc6ec4,2022-04-11 01:02:20.041,2022-04-11 01:02:20.041,806a9163-59ff-4ea0-a553-d5aed42302d9,door,Double,Victor,0,-5.248381903720568,2
621e89487df45a1568be2463,71aafb71-fd0d-4389-8315-4e32d6987659,40.77080585987281,-73.95070392259468,Gavin,62537e352c2fb43021fc6ff8,2022-04-11 01:02:45.351,2022-04-11 01:02:45.351,402bdcb7-68bd-4557-8721-3e13a4faaebd,door,Double,Victor,0,-2.7979349154376316,2
621e89567df45a1568be250b,8048a74f-683f-440d-95a3-3fbc2124cdac,40.770922784658,-73.95061849534297,Gavin,625383802c2fb43021fc94bf,2022-04-11 01:25:20.729,2022-04-11 01:25:20.729,851695a5-ceb2-4c41-8f6c-831b1fc1f061,door,Double,davidlxp,0,-3.640864992412846,2
621e89577df45a1568be2513,77d3c9e2-d3fc-4624-9599-9311734f6682,40.76320574729206,-73.98420756090238,Gavin,625383952c2fb43021fc964e,2022-04-11 01:25:41.917,2022-04-11 01:25:41.917,5b20bcc8-03a4-408d-81d3-8efd5aaa4a6a,door,Automatic,Thamm,0,-8.292948014272012,2
621e89587df45a1568be2518,0626de60-3388-4451-b94f-d66e660460e2,40.74567464256507,-73.99135840784324,Gavin,625383a22c2fb43021fc97e9,2022-04-11 01:25:54.906,2022-04-11 01:25:54.906,58aaa34c-2071-4778-afb0-074a9da722cd,door,Single,Victor,0,-5.537238634829712,1.0000000000000002
621e895f7df45a1568be2577,e0291f6e-4931-40cf-b0b3-c9b820e6fef5,40.77100090178268,-73.95056142143926,Gavin,625383b92c2fb43021fc9975,2022-04-11 01:26:17.379,2022-04-11 01:26:17.379,2a151721-14be-4375-8545-d6cb7f7463de,door,Single,Victor,0,-5.3226961118448175,2
621e89697df45a1568be25be,64251ab2-a2c4-4dc0-a146-c00109efb18e,40.77121221005478,-73.95040703469263,Gavin,625383c12c2fb43021fc9b0e,2022-04-11 01:26:25.096,2022-04-11 01:26:25.096,b378c497-c918-4f3e-8924-bf282bc5c563,door,Double,Victor,0,-5.559751321310142,2
621e89757df45a1568be2605,47527c82-56db-496f-b31c-19ca08afdab8,40.76328094218726,-73.98438620313615,Gavin,625383d72c2fb43021fc9ca6,2022-04-11 01:26:47.116,2022-04-11 01:26:47.116,5ed7026b-19c9-45f0-9d64-a2711d0bc789,door,Double,Thamm,0,-6.727602322006288,2
621e89807df45a1568be2648,b97fce67-3907-4e93-a558-ce38b2deedf5,40.762794460341695,-73.97544447894013,Gavin,625383f02c2fb43021fc9e55,2022-04-11 01:27:12.935,2022-04-11 01:27:12.935,b9afb3e3-0c10-4937-a6a7-2c5483938f4d,door,Double,pchen,0,-3.084949398458139,1.0000000000000002
621e89907df45a1568be267b,38a9813c-e5d8-4a65-9c82-b1b13652dd6d,40.84138977543924,-73.93982070905477,Gavin,625384062c2fb43021fca001,2022-04-11 01:27:34.67,2022-04-11 01:27:34.67,af44ed4d-3edb-418a-8596-b3ea106b4f63,door,Single,tort,0,-2.7023783876370167,2
621e89b27df45a1568be27ee,ee5c53c4-7937-45c1-8b64-c2c2a5886c76,40.763887782671496,-73.98579704258749,Gavin,625384172c2fb43021fca1ca,2022-04-11 01:27:51.278,2022-04-11 01:27:51.278,ccafaf21-0ccb-4927-a3ac-8a92142bd23c,door,Single,Thamm,0,-8.183833535040757,2
621e89c27df45a1568be2836,685c13d6-6b8a-4956-98a1-1613b1897575,40.764066698923074,-73.98622571501893,Gavin,6253841c2c2fb43021fca38b,2022-04-11 01:27:56.093,2022-04-11 01:27:56.093,1628bf66-ed28-44ba-bfa6-47acb3b57006,door,Single,Thamm,0,-6.858953627188455,2
621e8a217df45a1568be2a46,b75f5b8b-143f-4d85-8083-56e1648f7e09,40.71438101701788,-74.01132552812557,Gavin,625361092c2fb43021fc481d,2022-04-10 22:58:17.36,2022-04-10 22:58:17.36,53edc2d0-4a9e-4595-91db-33ade6838b8c,door,Automatic,Gavin,0,-5.433181448592197,1.0000000000000002
621e8a867df45a1568be2b51,d4f36f2a-cf63-4f98-afca-0bfd88aefc06,40.71523514184976,-74.01051389158256,Gavin,62535c7b2c2fb43021fc47b0,2022-04-10 22:38:51.874,2022-04-10 22:38:51.874,99cb493f-55bb-4cd9-8d40-24738903cbcc,door,Single,ahmedesoliman,0,-6.537354719416199,1.0000000000000002
621e8b547df45a1568be2c0b,c660c06a-094f-48e1-99fd-a58ab148c7ad,40.714738150110996,-74.0094146116505,Gavin,625359562c2fb43021fc46de,2022-04-10 22:25:26.729,2022-04-10 22:25:26.729,0ab1f78c-aa7d-4b72-9e01-aecc1affbf89,door,Double,Victor,0,-4.900828384417316,1.0000000000000002
621e8b5d7df45a1568be2c2b,9ebcf774-1117-4e23-a314-7a549c6f429e,40.71457954323852,-74.00906901687938,Gavin,62538d972c2fb43021fcd7d5,2022-04-11 02:08:23.548,2022-04-11 02:08:23.548,417aa854-872d-4962-8503-e4bba0690f43,door,Single,ahmedesoliman,0,-8.850629207606701,1.0000000000000002
621e8b9b7df45a1568be2d37,c8422b44-1ab6-45dd-8abb-9ebe794bda8a,40.713988513482406,-74.00777906402604,Gavin,62538fed2c2fb43021fcf0be,2022-04-11 02:18:21.658,2022-04-11 02:18:21.658,0b1ec2b0-cbaf-4e0f-82bf-f48c8cf79c5c,door,Single,Victor,0,-3.693021840295892,1.0000000000000002
621e8bf17df45a1568be2d5b,c51cefc9-5727-4750-8499-85cf9f29d677,40.714489569891484,-74.01056322018998,Gavin,625390192c2fb43021fcf3fb,2022-04-11 02:19:05.756,2022-04-11 02:19:05.756,6fdf98f0-d93b-4a2e-9918-1365da3ed51e,door,Double,Victor,0,-5.038677106411531,2
621f0c05f9ffb9afee807044,220758d6-b094-4faf-bc2a-6526e0aca12d,40.74012999789339,-73.99220518004331,Gavin,625390352c2fb43021fcf638,2022-04-11 02:19:33.628,2022-04-11 02:19:33.628,13db756b-f4ca-408a-b7e3-0b1da156e7a0,door,Single,Victor,0,-9.005048496523415,1.0000000000000002
621f0c51f9ffb9afee807154,2f0f27e9-9fac-43bb-8458-204a8318ad2c,40.74036380948027,-73.99276000292099,Gavin,6253903a2c2fb43021fcf879,2022-04-11 02:19:38.4,2022-04-11 02:19:38.4,4a7448e9-8dbe-4c38-9fe9-2a5128392392,door,Single,Victor,0,-7.089916481017044,1.0000000000000002
621f0c77f9ffb9afee80725d,c30bdb92-0998-4c8c-8f87-59464dc2ec92,40.74075459276459,-73.9933106204991,Gavin,6253905e2c2fb43021fcfaac,2022-04-11 02:20:14.456,2022-04-11 02:20:14.456,bd648091-89cb-49dd-8ec8-40edcf7e75ff,door,Double,kevin chau,0,-4.816435601927485,1.0000000000000002
621f0cacf9ffb9afee807386,4c75e58e-ad48-4c31-bb00-1970a5d7b20a,40.74077316893535,-73.99373067811983,Gavin,6253906f2c2fb43021fcfcfa,2022-04-11 02:20:31.07,2022-04-11 02:20:31.07,af281588-bae8-4797-8e73-05d286f92e7e,knob,Pull,kevin chau,0,-6.671275648899519,1.0000000000000002
621f0d0bf9ffb9afee8074c4,ea922e78-5238-40bd-983d-cbae69cfb556,40.740226685931425,-73.99494318287964,Gavin,625390ee2c2fb43021fcff47,2022-04-11 02:22:38.112,2022-04-11 02:22:38.112,0328d365-df6a-4e04-b3ea-5fc8a21bbbef,door,Double,Victor,0,-2.6536160886060833,1.0000000000000002
621f0d42f9ffb9afee8075fa,6f304a1f-76a2-48cf-a426-ef6578cd8e21,40.73965947163594,-73.99472615307796,Gavin,6253911d2c2fb43021fd0195,2022-04-11 02:23:25.761,2022-04-11 02:23:25.761,b4343a89-b507-4058-8963-e3e14efb48d3,door,Single,Gavin,0,-7.984792364125784,1.0000000000000002
621f0d74f9ffb9afee80773a,b1678df4-8047-4a28-ab6a-5636c11776f1,40.74003432745211,-73.99564517509071,Gavin,625391422c2fb43021fd03de,2022-04-11 02:24:02.411,2022-04-11 02:24:02.411,8d4440b0-6d70-4ceb-a406-6deaa61fe8c5,door,Double,kevin chau,0,-5.556943082585389,1.0000000000000002
621f0dd2f9ffb9afee80789f,2ee0aeb2-a247-425d-b953-236e5463ea60,40.74018218140378,-73.99599404706265,Gavin,625392102c2fb43021fd088b,2022-04-11 02:27:28.172,2022-04-11 02:27:28.172,2e67e5b0-f1c1-47aa-9dba-f54f26874bdd,door,Single,Victor,0,-4.151411929412197,1.0000000000000002
621f0f41f9ffb9afee807a04,8c578b19-96e6-4b8e-b38b-aba390936dd8,40.74024296163579,-73.99613816646456,Gavin,6253961e2c2fb43021fd3687,2022-04-11 02:44:46.329,2022-04-11 02:44:46.329,a3642b22-6127-4c48-ad20-40a66fc2c8af,door,Single,Victor,0,-5.932988883255768,1.0000000000000002
621f0f7ff9ffb9afee807b80,8c7ac69a-dd30-44b5-a1f0-6987751f0f2a,40.74032888644042,-73.99633941521007,Gavin,6253975e2c2fb43021fd3ae9,2022-04-11 02:50:06.158,2022-04-11 02:50:06.158,57340e28-e8b6-4c3d-b092-031aecab1bf9,door,Single,Gavin,0,-5.082027783398882,1.0000000000000002
621f0fb7f9ffb9afee807cfa,a12dd686-c0f7-44b6-8356-ebc7378296ce,40.740385715067674,-73.99647407326535,Gavin,625397822c2fb43021fd3d8f,2022-04-11 02:50:42.332,2022-04-11 02:50:42.332,b10ca7ad-9e70-47b2-8146-39df5a2db919,door,Single,Victor,0,-6.262972653892785,1.0000000000000002
621f0ff7f9ffb9afee807e96,ba5fad76-97a3-47ab-8700-baaf515243f0,40.74073573785848,-73.9968891541935,Gavin,625397ca2c2fb43021fd4043,2022-04-11 02:51:54.102,2022-04-11 02:51:54.102,c17cb940-a865-482f-a362-f1812a596c91,door,Double,Victor,0,-4.509314585895315,1.0000000000000002
621f1039f9ffb9afee808046,eef6ca7b-ff1e-40f9-a67c-82f0b2577a0e,40.74080498850704,-73.99705308358637,Gavin,625397df2c2fb43021fd430d,2022-04-11 02:52:15.848,2022-04-11 02:52:15.848,6caed6af-6e3a-4ea0-bf30-adbd13c2e562,door,Single,Victor,0,-3.899803331513509,1.0000000000000002
621f10a3f9ffb9afee80820a,0c047659-db14-49c8-8001-01006267a496,40.741845412708734,-73.9981354517867,Gavin,625397ef2c2fb43021fd45da,2022-04-11 02:52:31.125,2022-04-11 02:52:31.125,929210fc-7204-406e-84d2-db4eb0eb971e,knob,Pull,Victor,0,-7.48623025264841,1.0000000000000002
621f10ccf9ffb9afee80824f,0288a2ca-9688-4333-9ffd-54bca885f5a5,40.74199180246056,-73.99805093620053,Gavin,6253980e2c2fb43021fd4891,2022-04-11 02:53:02.741,2022-04-11 02:53:02.741,ba2d039c-be21-46a3-9336-856991419c90,door,Double,Victor,0,-7.296628651200333,1.0000000000000002
621f1104f9ffb9afee808534,dcfd175f-82fb-4577-be20-2b1312065f57,40.743225443017565,-73.99917877085531,Gavin,625398372c2fb43021fd4b58,2022-04-11 02:53:43.654,2022-04-11 02:53:43.654,7a14644c-7579-4f81-ab04-60e49fa06f49,door,Single,Victor,0,-6.869411724462136,1.0000000000000002
621f1147f9ffb9afee808770,d729c602-73c4-41a3-873c-8614cb31de13,40.7430432543903,-73.998745104167,Gavin,625398f12c2fb43021fd4e34,2022-04-11 02:56:49.018,2022-04-11 02:56:49.018,860d888b-1d5f-4ee8-8492-327a3b2fe487,door,Single,kevin chau,0,-4.893283401487214,1.0000000000000002
621f1176f9ffb9afee808969,04a9c1bb-391a-434f-81af-46a8cb4c8f5e,40.74300023425338,-73.99864340593783,Gavin,62539af72c2fb43021fd5894,2022-04-11 03:05:27.254,2022-04-11 03:05:27.254,1563e4d5-816b-40f0-957e-dd5b77711356,door,Single,Victor,0,0.724169065539637,1.0000000000000002
621f1199f9ffb9afee808b5d,aaf95d53-61c5-45b4-b474-26c7369b60fb,40.74295648590407,-73.9985389961091,Gavin,62539b0e2c2fb43021fd5b7a,2022-04-11 03:05:50.237,2022-04-11 03:05:50.237,b9ea2889-61ac-472c-86c9-dcd127409098,door,Single,kevin chau,0,-5.169519715291641,1.0000000000000002
621f11bdf9ffb9afee808d55,aee3ccb7-3ca6-4467-bcf6-8f5bac68e97d,40.74286820219602,-73.99832883747864,Gavin,62539ece2c2fb43021fd7931,2022-04-11 03:21:50.768,2022-04-11 03:21:50.768,f6287fb4-8bbf-49b2-8bde-27a62649d455,door,Single,kevin chau,0,-5.30067340768755,1.0000000000000002
621f11d2f9ffb9afee808f5a,2ebbfcf2-ec3b-425f-ad3e-44f792ff5622,40.74280640057474,-73.99818276603814,Gavin,62539ee62c2fb43021fd7c35,2022-04-11 03:22:14.082,2022-04-11 03:22:14.082,f800e0f8-1cb7-4bc6-8848-a7f9f9dbb607,door,Double,Victor,0,-1.2569207861050267,1.0000000000000002
621f11ebf9ffb9afee80916e,dc5a56ff-5823-4882-9696-b5ec26429f2a,40.742734091517775,-73.99801153555003,Gavin,62539f3d2c2fb43021fd80ba,2022-04-11 03:23:41.915,2022-04-11 03:23:41.915,159f1054-6e76-4741-ac39-e797f5483ed9,door,Single,kevin chau,0,-2.7838972092731558,1.0000000000000002
621f1211f9ffb9afee80939a,8e7beb20-59c7-4ef3-8912-24d09b6088e3,40.742628533468306,-73.99776144950609,Gavin,62539f542c2fb43021fd83d1,2022-04-11 03:24:04.165,2022-04-11 03:24:04.165,5df079a7-00d5-43d2-a5ad-e8d1e63954a3,door,Single,Victor,0,-6.563599792263732,1.0000000000000002
621f1237f9ffb9afee8095d0,8ef004fb-a903-4b05-ba2e-24683c6e6059,40.74247707704279,-73.9974020550201,Gavin,6253a06b2c2fb43021fd86f2,2022-04-11 03:28:43.517,2022-04-11 03:28:43.517,fa8ddbfa-cd97-4461-ae04-aa6a79adc567,door,Single,kevin chau,0,-5.161575125589358,1.0000000000000002
621f1327f9ffb9afee80983a,62d4f18e-efff-4dbb-b58d-bb4b19a97bce,40.74241959314178,-73.99949926995583,Gavin,6253a71a2c2fb43021fdb586,2022-04-11 03:57:14.952,2022-04-11 03:57:14.952,6b6a6e5c-7285-417d-bdf4-36f034809934,knob,Vertical Bar,Victor,0,-6.819253392978351,1.0000000000000002
621f1387f9ffb9afee809b34,dfaa87d4-394b-4ac3-b4df-17b5eb217065,40.74253973886505,-73.99978408465782,Gavin,6253a73c2c2fb43021fdb8cb,2022-04-11 03:57:48.313,2022-04-11 03:57:48.313,a17497ea-a552-4f75-a3cd-d54fc9f4e662,door,Single,Victor,0,-2.289224315320079,1.0000000000000002
62227a64c681a44ea0b5a076,bd0855bd-a03b-4dbd-9a6a-33460e1e092e,40.72878498068445,-73.98646998336949,Jipeng,628af9d53159432c8d3c4b80,2022-05-23 03:04:53.029,2022-05-23 03:04:53.029,9337744a-3e44-43e2-a104-8e35f94747e7,door,Single,Gavin,0,-6.304662205546089,1.0000000000000002
6223dbfe55348e862058d1d3,00e78035-611d-436d-9131-a79ae66fdd9f,40.759832382265195,-73.96884266703867,Gavin,6253a47b2c2fb43021fda4b9,2022-04-11 03:46:03.026,2022-04-11 03:46:03.026,806b40a6-d270-45f8-b1c6-accca3ca1cb0,door,Single,Gavin,0,-6.109124784041689,1.0000000000000002
622d0489c22d36b0ce945f55,ec01e73e-300e-4263-a083-327fbe9b2b8b,40.74847079700771,-73.97662073866198,Gavin,62537a1f2c2fb43021fc55b3,2022-04-11 00:45:19.971,2022-04-11 00:45:19.971,0a2896fe-e202-4e6b-9530-1bd48363bb73,door,Double,Victor,0,-5.353488241666165,1.0000000000000002
622d0498c22d36b0ce945f69,d9427023-27e0-450d-a887-049315654c99,40.74859185064062,-73.97690656006569,Gavin,62537eff2c2fb43021fc73c2,2022-04-11 01:06:07.056,2022-04-11 01:06:07.056,615df782-8cf6-47e2-9b3a-5cf903492aec,door,Double,Jay,0,-4.886869886839859,1.0000000000000002
622d04d2c22d36b0ce945f8d,e68156ec-0d7b-457d-9208-6fc360d5d6d4,40.74951388723089,-73.97908428062671,Gavin,6253959b2c2fb43021fd345c,2022-04-11 02:42:35.058,2022-04-11 02:42:35.058,5e6603e7-6867-4041-a119-856ac72f37a0,door,Double,Victor,0,-6.407800263745899,1.0000000000000002
622d07f1c22d36b0ce946277,3a6430c8-998c-4919-b9d8-2dfca6a2ff4a,40.728785291522534,-73.98647072389576,Victor,623d124675cadba32eaad737,2022-03-25 00:52:22.642,2022-03-25 00:52:22.642,94fbdc45-4a67-452b-b6bd-347a70718a43,door,Single,Victor,0,-7.648697781995748,1.0000000000000002
622d0859c22d36b0ce94630b,6f763512-b1d5-4892-9da3-7a87bcdf5359,40.7288441983792,-73.98660999604503,Victor,623d126375cadba32eaad9cb,2022-03-25 00:52:51.598,2022-03-25 00:52:51.598,25f8de1c-fe8b-486a-8ea3-13897c0eaaeb,door,Single,Victor,0,-7.246960350318342,1.0000000000000002
622d090ec22d36b0ce9463c3,bef3e742-59ae-4efd-8a5b-795de2f10f60,40.72889305355607,-73.98672523821446,Victor,623d127475cadba32eaadc7d,2022-03-25 00:53:08.281,2022-03-25 00:53:08.281,49a65e4e-0acd-46b5-bd70-90a235565a0a,door,Double,zoing,0,3.3552608718773134,1.0000000000000002
622d096cc22d36b0ce946483,260ca07e-4188-4ebc-bb05-d932e45fdb25,40.72944613963361,-73.98803073509183,Victor,623d129575cadba32eaadf1d,2022-03-25 00:53:41.42,2022-03-25 00:53:41.42,2ef18ac3-c250-465a-8d56-fbed016adb4f,door,Single,Victor,0,-3.309402114480796,1.0000000000000002
622d0a0bc22d36b0ce94654f,8b83a7bf-4ee9-407f-9550-dcf95dea9668,40.72959434202395,-73.98838332043607,Victor,623d129b75cadba32eaae1d3,2022-03-25 00:53:47.236,2022-03-25 00:53:47.236,dc991eb1-9cf9-4ed6-8328-efcbc0e5dc9e,door,Single,Victor,0,-6.4288689499986456,1.0000000000000002
622d0af9c22d36b0ce946861,20c106e7-cab7-4e5c-8b88-eb2f4d70e2d5,40.72981188728729,-73.98930805901357,Gavin,6253a7822c2fb43021fdbc1a,2022-04-11 03:58:58.509,2022-04-11 03:58:58.509,ea27d01a-f088-4708-8301-65b6a1169e5e,door,Double,Gavin,0,-5.566247512041651,1.0000000000000002
622d0badc22d36b0ce946c66,47d4f542-cc8e-4b7d-b2b7-459c1791c8b1,40.72980146651176,-73.9894842885869,Gavin,6253a7c82c2fb43021fdbf71,2022-04-11 04:00:08.904,2022-04-11 04:00:08.904,ab776267-0010-4e7d-8d9b-fb40165650bb,door,Double,Terrell,0,-6.248104763054591,1.0000000000000002
622d0c0dc22d36b0ce946d83,5b1b78ec-583b-4548-928e-8d863e4e1602,40.72938253815725,-73.98983380943416,Gavin,6253a80d2c2fb43021fdc2cb,2022-04-11 04:01:17.389,2022-04-11 04:01:17.389,39e21fba-f743-4b31-9bfc-508286af61c8,door,Double,Victor,0,-8.182134720594147,1.0000000000000002
622d0c72c22d36b0ce946dd3,597e791a-aa7b-4e20-8021-a00b4831fa7a,40.72927057539267,-73.98991628630306,Gavin,6253a8172c2fb43021fdc629,2022-04-11 04:01:27.653,2022-04-11 04:01:27.653,fe5733d7-b3fa-4e27-abdc-b877989f8edb,door,Single,Terrell,0,-6.5113269147864345,1.0000000000000002
622d0d8bc22d36b0ce946e69,4203512a-33f6-44cf-b7f5-1e7f5a098700,40.72923786734077,-73.98994021902203,Gavin,6253a8222c2fb43021fdc98a,2022-04-11 04:01:38.102,2022-04-11 04:01:38.102,78328a73-d86f-4945-843c-b9e56b49cf3c,door,Single,Victor,0,-2.9895181844223737,1.0000000000000002
622d0ea7c22d36b0ce946ed8,0c9b5e73-6f11-45b7-87b7-312b1d382fca,40.72923711891932,-73.98994076664772,Gavin,6253a8292c2fb43021fdccf1,2022-04-11 04:01:45.219,2022-04-11 04:01:45.219,a5d7e180-a41e-41ee-9ae5-c13fd29c8677,door,Single,Victor,0,-3.1638403771240133,1.0000000000000002
622d23bec22d36b0ce947a58,79336919-c97e-4700-80d1-d89619a3e3b3,40.71953712906401,-73.99328795132426,Gavin,6253a8392c2fb43021fdd05b,2022-04-11 04:02:01.833,2022-04-11 04:02:01.833,2ea01cdf-0add-4ffa-beed-527a2d0f732a,door,Single,Brittany,0,-5.893124583739086,1.0000000000000002
622d23ffc22d36b0ce947a7f,9f9edbc1-85f0-43d2-8550-b806aa5d5d6b,40.722781805068806,-73.99602050376643,Gavin,6253a8a72c2fb43021fdd739,2022-04-11 04:03:51.576,2022-04-11 04:03:51.576,77cd1488-e1f1-434a-97f5-f341282fa059,door,Single,Brittany,0,-9.607851098188243,1.0000000000000002
622d246cc22d36b0ce947abf,087ba781-11da-466d-afee-69fa066a2aa0,40.72220078558275,-73.98681991548666,Gavin,6253a8c82c2fb43021fddace,2022-04-11 04:04:24.197,2022-04-11 04:04:24.197,cd8d01d4-c569-43f9-84c6-3732183983ea,door,Single,Victor,0,-6.8007036636224045,1.0000000000000002
622d249cc22d36b0ce947aed,01d2561b-7df0-41ac-a297-913a5e1c84ed,40.722027112845744,-73.98726723066537,Gavin,625443f12c2fb43021fe08a6,2022-04-11 15:06:25.645,2022-04-11 15:06:25.645,17e69c19-b010-4a70-a8df-7483b7b76a5a,door,Single,Brittany,0,-6.576878271441505,1.0000000000000002
622d24c3c22d36b0ce947b16,b69b70ed-b808-4221-924c-00ceba25c898,40.72156504541449,-73.98750497730073,Gavin,625444282c2fb43021fe0c57,2022-04-11 15:07:20.939,2022-04-11 15:07:20.939,dbb6537f-63b2-4a65-af0f-4690aba6df3d,door,Single,Victor,0,-5.813088385965568,1.0000000000000002
622d24d2c22d36b0ce947b41,125f31c8-c754-4f40-a63e-5a0e78a21b13,40.72138110211086,-73.98759924156857,Gavin,625449b92c2fb43021fe11e1,2022-04-11 15:31:05.989,2022-04-11 15:31:05.989,9af4c85c-0569-42c5-891c-c5e2039c104d,door,Single,Gavin,0,-6.716166913626434,1.0000000000000002
622d24f2c22d36b0ce947b6e,f599a772-3eaa-4b69-8396-ae9dcc8bdde4,40.72097173741116,-73.98798983179901,Gavin,62544a052c2fb43021fe1588,2022-04-11 15:32:21.933,2022-04-11 15:32:21.933,5ba755e4-e006-4a6b-a8bb-969c655a6983,door,Single,Brittany,0,-3.8836556695121787,1.0000000000000002
622d256dc22d36b0ce947ba3,dd758998-193d-415f-989a-d396fe3c6dca,40.71876070316567,-73.98532954686277,Gavin,62544a572c2fb43021fe1943,2022-04-11 15:33:43.302,2022-04-11 15:33:43.302,6577c6a6-6159-45de-bb5f-6da915123cdc,stairs,,Gavin,0,-10.37522071952277,1.0000000000000002
622d25e7c22d36b0ce947bf7,c3d7580e-6bfd-4f44-86af-281d8f1056f2,40.71809998292889,-73.98567114943518,Gavin,62544a6d2c2fb43021fe1d0b,2022-04-11 15:34:05.112,2022-04-11 15:34:05.112,f333aab9-77ed-4646-b28f-b6e48232d8b5,door,Single,Victor,0,-4.908070944144565,1.0000000000000002
622d2648c22d36b0ce947c43,501e5212-ef3e-4ca3-a710-81f235e01b71,40.720197457813676,-73.98459107566073,Gavin,62544a8f2c2fb43021fe20ca,2022-04-11 15:34:39.585,2022-04-11 15:34:39.585,3b0ef62c-6c3f-47ec-997e-ab1fc4f1081c,door,Double,Gavin,0,-5.404933401634991,1.0000000000000002
623a8f3c546e3cfc6f52d628,04328411-764b-4011-81b2-b25f7b5ae32a,40.74859141862525,-73.9773081929828,Gavin,62537f792c2fb43021fc7784,2022-04-11 01:08:09.775,2022-04-11 01:08:09.775,9f741608-4bbf-42b8-b372-5da41816cdb5,stairs,,Hiba,0,-9.841579074002768,1.0000000000000002
623a921f546e3cfc6f52d67d,1462dbdc-4104-40d1-8509-19abf144c6ef,40.751919424642665,-73.98097283617757,Gavin,62544aa52c2fb43021fe2484,2022-04-11 15:35:01.019,2022-04-11 15:35:01.019,c06c61be-2388-450c-883a-f6906f174156,door,Automatic,Hiba,0,-6.669525276343279,1.0000000000000002
623a9282546e3cfc6f52d6bd,5f507401-b0f6-47c5-bab5-1a79e25f5995,40.751791995162044,-73.98105086329565,Gavin,62544b1e2c2fb43021fe2847,2022-04-11 15:37:02.279,2022-04-11 15:37:02.279,3c3305b0-1b43-425c-be08-e945535d58b0,door,Revolving,Victor,0,-6.957066099552368,1.0000000000000002
623a934b546e3cfc6f52d71a,8ce169b1-6062-45de-a2cd-97f4a71ef18c,40.75132460728856,-73.97194057843575,Gavin,62544b2f2c2fb43021fe2c19,2022-04-11 15:37:19.696,2022-04-11 15:37:19.696,7eb950a8-751b-478e-a9c3-b5d73b16b195,door,Double,Gavin,0,-10.338299354924198,1.0000000000000002
623a93d4546e3cfc6f52d784,fc1f893b-84ad-4736-862f-718349e8fcb6,40.75227905609259,-73.97380477668253,Gavin,62544b3c2c2fb43021fe2fe5,2022-04-11 15:37:32.358,2022-04-11 15:37:32.358,9df5ff96-5414-484b-b418-ba73c4c87484,door,Single,Hiba,0,-7.146298303739102,1.0000000000000002
623a9411546e3cfc6f52d7eb,0d062f1d-2f6c-4604-a603-e4b775124aab,40.75236127916494,-73.97399947824941,Gavin,62544b4a2c2fb43021fe33bc,2022-04-11 15:37:46.84,2022-04-11 15:37:46.84,8a5d4ab6-7045-4e43-bf92-ae5849d5b456,door,Double,Hiba,0,-3.828403433976199,1.0000000000000002
623a9485546e3cfc6f52d863,65732d64-e14f-46ab-87c7-4d419279a671,40.752793734293526,-73.97491575147103,Gavin,62544b542c2fb43021fe3797,2022-04-11 15:37:56.899,2022-04-11 15:37:56.899,cafb23e0-2a8e-4c04-ab9e-6cfa92e1cccb,door,Double,Victor,0,-5.862245014256049,1.0000000000000002
623a9520546e3cfc6f52d904,645b580e-1002-42ea-b7e3-a3f99d70fc7c,40.76937344529406,-73.96786679630225,Gavin,6254511a2c2fb43021fe5f07,2022-04-11 16:02:34.809,2022-04-11 16:02:34.809,834a3c23-0ef6-40a9-b8a5-25376f96cc03,stairs,,Gavin,0,-11.18734428311248,1.0000000000000002
623a95ac546e3cfc6f52d9a0,cdd51052-6495-4e0a-9947-9aa7f592a5f0,40.76902945878617,-73.96705280863155,Gavin,625451462c2fb43021fe6310,2022-04-11 16:03:18.391,2022-04-11 16:03:18.391,51ac1316-b681-4320-8cac-c607b73fd14d,door,Double,Gavin,0,-8.273429734942983,1.0000000000000002
623a95f5546e3cfc6f52da3e,3461ef94-0687-4d15-874d-c30fb47a4734,40.76893083399602,-73.96681877742024,Gavin,625451ba2c2fb43021fe671a,2022-04-11 16:05:14.523,2022-04-11 16:05:14.523,e5ab1d45-6edf-4625-b14b-e8748f345a17,door,Single,Hiba,0,-8.324627659220562,1.0000000000000002
623a9662546e3cfc6f52dafe,ec877ed7-4501-4781-b316-13d1019ec43d,40.76888400072825,-73.96670909258876,Gavin,625451ce2c2fb43021fe6b29,2022-04-11 16:05:34.416,2022-04-11 16:05:34.416,e973d137-7d19-4fa6-a66d-0611df83b516,door,Double,Gavin,0,-3.178528599269273,1.0000000000000002
623a96b4546e3cfc6f52dbe1,cf9b960d-e12f-440e-99cb-81481325e479,40.73543447528835,-73.98107795439809,Gavin,625467832c2fb43021ff07a5,2022-04-11 17:38:11.487,2022-04-11 17:38:11.487,4b2ed291-f640-4fa1-a231-a38dfa7681c3,stairs,,Hiba,0,-10.646770919980721,1.0000000000000002
623a96f6546e3cfc6f52dcbe,a3072a51-c01b-463e-9a65-23a6abb9f6e8,40.7351045340252,-73.98029214327622,Gavin,6254679e2c2fb43021ff0c37,2022-04-11 17:38:38.722,2022-04-11 17:38:38.722,1485fca6-72f1-43bd-a39d-211af3d04f95,door,Single,Hiba,0,-8.656913687424986,1.0000000000000002
623b8ff6a61faf95eaee9c2b,65130eed-5d40-4912-9091-35bc74685697,40.742280878606955,-73.99552117202876,elmtang,625f5ac4e727870f94b8e6bf,2022-04-20 00:58:44.868,2022-04-20 00:58:44.868,146aaf8b-7063-4530-a2ee-fb315a1e38e5,door,Double,Victor,0,-6.652610908274646,1.0000000000000002
623b900ba61faf95eaee9c7b,8bb35f49-87da-4178-b0eb-e7ba879c481e,40.74237850431536,-73.99575397162062,Muztahidul chowdhury,629806c5623f50fe06799e84,2022-06-02 00:39:33.584,2022-06-02 00:39:33.584,531ff1b6-e126-481c-a872-3c27c241ae86,door,Single,Muztahidul chowdhury,0,-3.5689013994293433,1.0000000000000002
623b901ca61faf95eaee9cc8,b2876f75-8c43-476f-bad5-d596b4a09800,40.7424796338454,-73.99599380912284,tort,62971667623f50fe06799758,2022-06-01 07:33:59.238,2022-06-01 07:33:59.238,7c3a306d-5194-4c09-8589-0107de196ba6,door,Double,Victor,0,-4.299826359412198,1.0000000000000002
623b9026a61faf95eaee9d16,1c7880ba-055b-42d9-aae0-a0ba4844a771,40.74254852827666,-73.99615679237353,Muztahidul chowdhury,629806d8623f50fe0679a00c,2022-06-02 00:39:52.768,2022-06-02 00:39:52.768,58ba6dee-c8e1-4890-8236-3473cde69a41,door,Single,Victor,0,-5.053358192080783,1.0000000000000002
623b9049a61faf95eaee9d67,ee515081-bf07-4859-b691-6b63cb77a4cd,40.7426329519838,-73.99635640737158,Muztahidul chowdhury,629806e5623f50fe0679a1a3,2022-06-02 00:40:05.264,2022-06-02 00:40:05.264,c7e2651b-77c4-4932-9eda-ce37b58030a4,door,Automatic,Victor,0,-5.569129848695544,1.969174997919788
623b9064a61faf95eaee9dbc,44212285-96e8-4159-8da1-06ffc31053ce,40.742773752996065,-73.99628733045712,Muztahidul chowdhury,629806ef623f50fe0679a33b,2022-06-02 00:40:15.453,2022-06-02 00:40:15.453,a925383f-bea4-469f-8a0c-7f1eb0ca945e,door,Automatic,Victor,0,-5.960581303755261,2.0000000000000004
623b907fa61faf95eaee9e13,cbb317bc-bae4-428a-9629-33bd2a42d5a9,40.742711727816854,-73.99613895446673,Muztahidul chowdhury,629806f9623f50fe0679a4d6,2022-06-02 00:40:25.216,2022-06-02 00:40:25.216,652a4d09-fdc9-48f3-a4b1-c7ab9524e7d4,stairs,,Victor,0,-11.361227682648362,2.0000000000000004
623b9091466eb444e785c972,2ca87411-a4d7-4ec9-8250-c80f3100057b,40.742668535597474,-73.99603640257232,Muztahidul chowdhury,62980701623f50fe0679a67f,2022-06-02 00:40:33.805,2022-06-02 00:40:33.805,456400a5-94e0-48d3-96e8-8e2ea31bb2d0,door,Double,Victor,0,8.468169058943065,2.0000000000000004
623b909f8d0365b1e21077dc,4ece5024-a7ae-4dcf-b943-f2caeb57042c,40.742586191326545,-73.99584189786752,Muztahidul chowdhury,62980705623f50fe0679a82b,2022-06-02 00:40:37.333,2022-06-02 00:40:37.333,8621784c-36fa-41c7-aff5-2dc75d1e8aaa,door,Revolving,Gavin,0,-5.621086307182351,2.0000000000000004
623b90b58d0365b1e210783e,d0a90579-f3ec-4262-bc21-d7599d030a86,40.74253538143773,-73.99572145960984,Muztahidul chowdhury,6298070c623f50fe0679a9d9,2022-06-02 00:40:44.86,2022-06-02 00:40:44.86,f2e29385-b237-42e0-a973-6524547a6745,door,Automatic,Gavin,0,-7.739925908100052,2.0000000000000004
623b92c98d0365b1e2108781,1dcb7c99-3329-407c-81b7-3dc925b95853,40.761899140851696,-73.98152611056419,Muztahidul chowdhury,62980710623f50fe0679ab91,2022-06-02 00:40:48.16,2022-06-02 00:40:48.16,9aa83865-d877-4dfd-a042-eacb7e886188,door,Single,Victor,0,-4.455167416315117,3.0000000000000004
623b92d48d0365b1e21087e0,76f3402f-a0b7-4e18-b091-1a46cfedbf4e,40.761993207860684,-73.98175020632382,Muztahidul chowdhury,629ad2ca90d6c964e6cbae93,2022-06-04 03:34:34.915,2022-06-04 03:34:34.915,80f77e59-4e47-42b8-af4a-31f8e7e8e40f,door,Double,Gavin,0,-5.0492982010796315,2.9755282581475773
623b92e68d0365b1e210883e,60399819-847f-4d22-af62-58910c399ccd,40.762031625379066,-73.98184172882843,Muztahidul chowdhury,629ad2d190d6c964e6cbb23f,2022-06-04 03:34:41.872,2022-06-04 03:34:41.872,496f4e65-e5f1-4d71-b905-fb69e6f2859d,door,Double,Victor,0,-5.375619061325917,3.0000000000000004
623b931e8d0365b1e21088b3,d5e2258b-f456-404b-8215-5b0e686c3c72,40.762800655037914,-73.98364809801306,Muztahidul chowdhury,629ad2d590d6c964e6cbb5ea,2022-06-04 03:34:45.407,2022-06-04 03:34:45.407,4142284d-6eb9-431b-ac3f-5ca7965271a3,door,Double,Gavin,0,-6.700145261359013,2.0308250020802125
623b93278d0365b1e2108917,80d4b3c5-c8a4-48d1-bea1-546c9bead8cb,40.76286189177921,-73.9837915305332,Muztahidul chowdhury,629ad2d890d6c964e6cbb99c,2022-06-04 03:34:48.681,2022-06-04 03:34:48.681,d9874447-6098-4aab-ad77-86d7cfca2562,door,Single,Victor,0,-7.364903020506119,2
623b932f8d0365b1e2108982,b264a61c-7d19-4200-96e8-dc574a25719c,40.76290055951889,-73.98388267594264,Muztahidul chowdhury,629ad2dc90d6c964e6cbbd5e,2022-06-04 03:34:52.621,2022-06-04 03:34:52.621,1d1f0aba-2b0c-4425-91fe-dc21dcd3c460,door,Single,Victor,0,-6.9873083658387705,2
623b93448d0365b1e21089f2,95834cc2-896a-424d-9ddb-3b544ba8e9af,40.763159108977284,-73.98448566830241,Muztahidul chowdhury,629ad2df90d6c964e6cbc126,2022-06-04 03:34:55.949,2022-06-04 03:34:55.949,c14c8681-d5e6-47ab-b683-475d80fe832f,door,Double,Victor,0,-6.474376811234958,2
623b934d8d0365b1e2108a63,8db76f23-50c4-42d4-ba23-08b97d1a82f6,40.763241826973385,-73.98467736067568,Muztahidul chowdhury,629ec3aa6ae9b8a94d3e11e9,2022-06-07 03:19:06.766,2022-06-07 03:19:06.766,2a1dd186-1296-4ac8-9c24-45764b8d9e41,door,Single,Victor,0,-8.303201251512112,2
623b93568d0365b1e2108add,011cc9b1-626f-47e9-a043-b376e48491fb,40.76331088033097,-73.98483844601921,Muztahidul chowdhury,629ec3b06ae9b8a94d3e1a71,2022-06-07 03:19:12.885,2022-06-07 03:19:12.885,26657177-aee4-4ba6-a129-2225c0eff7b8,door,Single,Victor,0,-7.489325056367625,2
623b936c8d0365b1e2108b5b,1c1c9d36-33e3-4469-86f6-4ea77a9e9304,40.76367613014322,-73.9857129071004,Muztahidul chowdhury,629ec4346ae9b8a94d3e3904,2022-06-07 03:21:24.653,2022-06-07 03:21:24.653,ddc9df3d-8279-469a-acee-14e870644009,door,Open,Victor,0,-7.29803557212422,2
623bc6318d0365b1e2109da4,909dbbae-cd98-47d5-a54a-eb6755f15cc3,40.759941206874934,-73.968673502527,Gavin,6253781a2c2fb43021fc50df,2022-04-11 00:36:42.863,2022-04-11 00:36:42.863,039d85ed-118a-4073-8449-6fd042d79b2e,door,Automatic,Jay,0,-7.1961352666018765,1.0000000000000002
623bc6548d0365b1e2109dc9,9c91a654-4a2b-4907-bf35-59c452f129e9,40.76011543591133,-73.96908495701473,Gavin,6253a23a2c2fb43021fd9d5c,2022-04-11 03:36:26.115,2022-04-11 03:36:26.115,668e3bfa-3be3-405c-ba6f-7990fa907ba0,door,Single,Jay,0,-7.506909300463802,1.0000000000000002
623bc6708d0365b1e2109def,058f4b62-a2ee-4816-85c5-6c50bc8f482e,40.76016793751012,-73.96920910785312,Gavin,6253a1eb2c2fb43021fd9721,2022-04-11 03:35:07.861,2022-04-11 03:35:07.861,ed795834-fe98-4b31-badb-745a6406ff40,door,Double,Jay,0,-3.862745489669207,1.0000000000000002
623bc67c8d0365b1e2109e14,2aa56ed2-116e-43aa-b8d9-b36ea1d7e296,40.76023985891043,-73.96937941760007,Gavin,6253a1932c2fb43021fd9275,2022-04-11 03:33:39.035,2022-04-11 03:33:39.035,65fc5128-d886-4b67-9293-08788f92f886,door,Double,Jay,0,-4.551349018737933,1.0000000000000002
623d08b875cadba32eaa6058,59c57574-c793-426d-8b80-5e3d3e53f77d,40.7069662397009,-74.00888989068352,Gavin,6254bc742c2fb43021ffb6f4,2022-04-11 23:40:36.328,2022-04-11 23:40:36.328,b5bd0842-f799-415d-b2c1-8f79a6addd51,door,Double,Hiba,0,-6.765703795280187,1.0000000000000002
623d091d75cadba32eaa6202,b2392a17-7f51-46ac-acac-632b67a9319b,40.70717257400001,-74.00869211789889,Gavin,6254bcc72c2fb43021ffbbee,2022-04-11 23:41:59.418,2022-04-11 23:41:59.418,df426ac7-679a-4761-b22b-86200ba6c293,door,Double,Victor,0,-6.367664371311547,1.0000000000000002
623d09b875cadba32eaa63d5,6e5ebaed-70aa-4efa-a9f0-3ce54c4f278f,40.70933975919681,-74.00806072379515,Gavin,6254bce52c2fb43021ffc0f2,2022-04-11 23:42:29.714,2022-04-11 23:42:29.714,507227e8-c431-45fa-929c-2da3b1b54589,door,Single,Gavin,0,-4.617765707507055,1.0000000000000002
623d0aef75cadba32eaa662f,8b2af098-3bd7-4b6a-89ba-fec8189ba4e8,40.742889423109304,-73.98420251772436,Gavin,6254c9cf2c2fb4302100c3fe,2022-04-12 00:37:35.843,2022-04-12 00:37:35.843,d1ce3bfc-0a1a-44e5-87d3-37ccff40ed83,door,Double,Hiba,0,-4.8402034113985195,1.0000000000000002
623d0b5f75cadba32eaa6821,5c92ae49-3af5-4c5f-844e-fa90e9c9ad6c,40.743061709624484,-73.98363641613139,Gavin,6254c9e22c2fb4302100c9a0,2022-04-12 00:37:54.089,2022-04-12 00:37:54.089,a4a6b0bc-98ac-4cee-b521-c9124ca9c5ed,door,Double,Hiba,0,-5.321067930166773,1.0000000000000002
623d0bab75cadba32eaa69f4,e4b8a23b-5a01-4b90-b136-64f21ac2a57e,40.74295482371575,-73.98338358540474,Gavin,6254ca1b2c2fb4302100cf2f,2022-04-12 00:38:51.024,2022-04-12 00:38:51.024,3c082cad-285d-478c-953e-71389d23ce5f,door,Single,Gavin,0,-7.482008743052442,1.0000000000000002
623d0bf975cadba32eaa6be0,869475a4-1434-4f0e-9bfd-10c40ce4f1aa,40.74289252692966,-73.9832369156704,Gavin,6254ca492c2fb4302100d4ce,2022-04-12 00:39:37.954,2022-04-12 00:39:37.954,a8c0b4a0-cb38-48f1-a90e-da7ccd6149e6,door,Double,Gavin,0,-4.5407275788313255,1.0000000000000002
623d12b875cadba32eaae719,3d63f058-da6f-49c0-b7e1-44c01bfe0a3b,40.76381735758993,-73.9860501974962,Muztahidul chowdhury,629ec4916ae9b8a94d3e5b0b,2022-06-07 03:22:57.606,2022-06-07 03:22:57.606,1fc1f55a-73c4-469e-9eea-0e283785d517,door,Single,Victor,0,-7.622801408736085,2
623d12cc75cadba32eaae8f9,88d9acd4-8414-4ef9-9f17-4a63403220d6,40.763880541711025,-73.98620154915724,Muztahidul chowdhury,629ec4a16ae9b8a94d3e63a5,2022-06-07 03:23:13.602,2022-06-07 03:23:13.602,c3117b61-7497-460c-b66b-406a40316f53,door,Single,Victor,0,-7.898425687542796,2
623d12db75cadba32eaae9f4,f8a5850a-df53-45e0-8310-a3caf47e4dd7,40.7641460276072,-73.98683412539145,Muztahidul chowdhury,629ec4ea6ae9b8a94d3e8287,2022-06-07 03:24:26.889,2022-06-07 03:24:26.889,4929cf69-6750-421a-a9c2-1ebf589de9de,stairs,,Victor,0,-13.024977993600105,2
623d12e475cadba32eaaeaea,7c3ef068-ab11-41e9-b45c-5fc1d8647971,40.764370999210335,-73.98737191112077,Muztahidul chowdhury,629ec5406ae9b8a94d3ea17d,2022-06-07 03:25:52.722,2022-06-07 03:25:52.722,57cbd641-eb1a-4088-8780-ea1ec52dfe69,door,Single,Victor,0,-3.7569919328378663,2
623d12ec75cadba32eaaebe4,d3c1e616-9e7c-45b4-a410-b959e9349a16,40.76449402405942,-73.9876663017799,Muztahidul chowdhury,629ec5d36ae9b8a94d3ec0b4,2022-06-07 03:28:19.173,2022-06-07 03:28:19.173,84b33630-a5b7-48f6-8899-7c93bf88283d,knob,Pull,Victor,0,-5.127731641379792,2
623d142a75cadba32eaaece0,018ecca8-9826-4341-8ee7-0c38516bf5a5,40.7648727886858,-73.98855287458032,Muztahidul chowdhury,629ec66c6ae9b8a94d3ee010,2022-06-07 03:30:52.278,2022-06-07 03:30:52.278,67758e47-b5d0-4a33-9bf4-6d92d034f173,door,Single,Victor,0,-3.5553742674155786,2
623d143775cadba32eaaeecb,4195a632-1727-4c88-a7c5-6f805ad11fb1,40.76501599768698,-73.98889326147801,Hiba,62e070d8f32a182512fe6796,2022-07-26 22:55:20.541,2022-07-26 22:55:20.541,169b9b5f-39af-4ce7-a86f-a5a9e8f57ea9,door,Single,Gavin,0,-1.27916173652947,2
623d144075cadba32eaaefc9,67097ff1-afb3-4c40-ba4e-6c46314d6a45,40.765165173357424,-73.9892485733747,Hiba,62e070dff32a182512fe6aa9,2022-07-26 22:55:27.973,2022-07-26 22:55:27.973,e9026442-2234-4e0e-9c19-6f1dfe0843cd,door,Single,Gavin,0,-3.82236038635801,2
623d190875cadba32eaaf0c0,54016940-3984-4c2f-bd27-1caeeee3fde1,40.765216416126485,-73.98936998321,Hiba,62e070e9f32a182512fe6db1,2022-07-26 22:55:37.951,2022-07-26 22:55:37.951,d11d3f5c-144e-4bb6-8dc3-38734e82df73,door,Double,Gavin,0,-3.4554811971506973,2
623d191975cadba32eaaf39f,ab2fe1c8-ba6c-4e4c-9c27-78889d0a01a1,40.765301630626055,-73.98957139963305,Hiba,62e070eef32a182512fe70c4,2022-07-26 22:55:42.945,2022-07-26 22:55:42.945,1fbdc827-9b7f-4884-9ab2-3c6ee6a3392a,door,Single,Gavin,0,-7.82476437097244,2
623d1a3e75cadba32eab1d98,045a145e-02ce-441a-8430-1e0721822256,40.76536908515935,-73.98973320128545,Hiba,62e070f4f32a182512fe73e5,2022-07-26 22:55:48.825,2022-07-26 22:55:48.825,fc555255-e97d-458e-998e-022a62dfe81a,door,Single,Victor,0,-1.6091475014965582,2
623d1aab75cadba32eab1e9a,7a403449-24ee-4f53-a49e-b06f457a9162,40.76545304527385,-73.98993178925544,Hiba,62e070f9f32a182512fe7710,2022-07-26 22:55:53.324,2022-07-26 22:55:53.324,34d07fe8-caf4-4120-bca7-1dbc95a85bf3,door,Double,Victor,0,-6.897942479333057,2
623d1ad975cadba32eab1fa3,7fc1554f-ed99-450c-b1e4-4f0657c15350,40.76562740592275,-73.99034655635965,Hiba,62e070fcf32a182512fe7a46,2022-07-26 22:55:56.479,2022-07-26 22:55:56.479,df9940d1-68b0-4737-be26-ccb76a15cf98,door,Double,Victor,0,-2.6155843147102806,2
623d1ae275cadba32eab20a9,cebd1eaf-3a48-4718-bf8d-a74f73786993,40.76567991481271,-73.99047162048309,Hiba,62e07101f32a182512fe7d74,2022-07-26 22:56:01.287,2022-07-26 22:56:01.287,7052c7b2-2697-45a8-a354-5e5612b4581a,door,Single,Gavin,0,-8.596688379553957,2
623d1b1e75cadba32eab21b9,c64462a7-c3ef-42cd-b75c-ce029f3195cf,40.7660316078455,-73.99130186534423,Hiba,62e7b591794d4fa5c92b2143,2022-08-01 11:14:25.484,2022-08-01 11:14:25.484,7ac7318e-413a-4672-84e3-11c3eb33bb91,door,Single,Gavin,0,-2.2077642460160005,2
623f6adc044640d3955bbbe8,3ab29859-d631-4b34-89dc-e1d822da7234,40.7285729013895,-73.98931015328857,Jipeng,628b01883159432c8d3c7728,2022-05-23 03:37:44.307,2022-05-23 03:37:44.307,f23ebf84-fd43-40c5-a374-c0d951fd68df,door,Single,Victor,0,-4.575097884141253,2
623f6af3044640d3955bbcf8,ebb16d39-dd26-442f-8a42-37f89eb50f54,40.72876272263234,-73.990169785475,Muztahidul chowdhury,6294f8d878acc8596583ec0a,2022-05-30 17:03:20.942,2022-05-30 17:03:20.942,4ed1e278-2d5e-4106-8a1f-075f536fa15a,door,Revolving,Victor,0,-1.6650317709506346,1.0000000000000002
623f6b05044640d3955bbe08,b3dce359-1921-492a-92d2-a134d533848e,40.72899294046608,-73.99012089289998,ISIDOR,6320c85dadc63ac2712fb19d,2022-09-13 18:13:49.731,2022-09-13 18:13:49.731,43530f01-10cb-4009-a3ef-4f2955189f06,door,Double,Victor,0,-7.3887867961911775,1.0000000000000002
623f6b1f044640d3955bc02a,bcf87d11-2d70-4d4d-acc9-564ac670f173,40.729757925440055,-73.98955615602596,ISIDOR,6320c87ded4d370b3d9bc45c,2022-09-13 18:14:21.824,2022-09-13 18:14:21.824,50b84340-8657-4353-b5a1-3c3aff37f3a6,door,Double,Gavin,0,-5.280607894295462,2
623f6b27044640d3955bc140,b09636fa-d69d-4ff2-a913-d6baab5deb91,40.729801504670235,-73.98948364328332,ISIDOR,6320c893ed4d370b3d9bc48a,2022-09-13 18:14:43.559,2022-09-13 18:14:43.559,e24c26b0-0da4-4e14-8920-f8924eb3e999,door,Double,Victor,0,-9.256216019892166,2
623f6b34044640d3955bc25a,2ea31941-0b97-47c8-923c-c43e18967591,40.729830758279235,-73.98898891296743,ISIDOR,6320c89eed4d370b3d9bc4bd,2022-09-13 18:14:54.362,2022-09-13 18:14:54.362,09bcb565-779c-484c-bbb5-407b247893da,door,Single,Victor,0,-10.618640447668755,2
623f6b61044640d3955bc371,856ba2c9-a556-407c-b752-da38dcb345dd,40.729774887493626,-73.98881273480606,ISIDOR,6320c8a8ed4d370b3d9bc4eb,2022-09-13 18:15:04.715,2022-09-13 18:15:04.715,fa1ea8e6-698d-4949-a0cf-fb87c7728a88,door,Double,Victor,0,5.116149574931976,2
623f6b6c044640d3955bc590,bee3dd95-df7b-45e9-a886-898d2fd79571,40.7296959088087,-73.98862504693867,ISIDOR,6320c8aeed4d370b3d9bc523,2022-09-13 18:15:10.216,2022-09-13 18:15:10.216,b6e307e0-feb7-4e2e-813a-480dd4a7de6d,door,Single,Victor,0,-4.360889607545397,2
623f6d5c044640d3955bc6bc,be2331f8-7d73-498d-821f-6db8c6b2a6a4,40.72900817361899,-73.98661629439644,Muztahidul chowdhury,629c4952fb1a35ef18992d81,2022-06-05 06:12:34.623,2022-06-05 06:12:34.623,f41a36bb-f934-462b-b1f1-0d090fba56ff,door,Double,Victor,0,6.839023090148039,2
623f7205044640d3955bf0d7,12bbeb94-f3cd-4324-a6ca-267f4104ec53,40.748548852110055,-73.97720698824155,ISIDOR,6320c8ceed4d370b3d9bc566,2022-09-13 18:15:42.353,2022-09-13 18:15:42.353,d037e2f2-9653-4abf-8d17-1aa28c8361bd,door,Single,Victor,0,-6.681634963396532,2
623f7213044640d3955bf1f1,756ddabe-73ca-4424-a6aa-ebc0f591814c,40.748828052002175,-73.9774662468808,ISIDOR,6320cae8ed4d370b3d9bc5b6,2022-09-13 18:24:40.655,2022-09-13 18:24:40.655,dab67153-5b87-4683-9a84-8499051916b2,door,Double,Victor,0,6.64586003738708,2
623f7267044640d3955bf31f,a1ce49e5-6bfa-4b6d-8e2b-4b9d64e3be31,40.7490766212777,-73.97805137573881,ISIDOR,6320caf0ed4d370b3d9bc617,2022-09-13 18:24:48.39,2022-09-13 18:24:48.39,bbf68732-23e3-4879-9ea8-1a1d56ec0b82,door,Single,Victor,0,-6.672167508697585,2
623f7379044640d3955bf43c,803b9e8c-6165-45e3-b0fb-ced86e1efd3d,40.74916165167646,-73.97825105411148,ISIDOR,6320cb0ced4d370b3d9bc667,2022-09-13 18:25:16.858,2022-09-13 18:25:16.858,fc716c59-3fe9-4e21-b5d6-583acee2c2d4,door,Double,Victor,0,6.694666014010719,2
623f7381044640d3955bf564,4d9b3158-d46f-4c00-ba2d-ac5f776e52d5,40.74920412995119,-73.97835295727494,Grady,635739c741bc51afda8734c2,2022-10-25 01:20:07.12,2022-10-25 01:20:07.12,e0dcd05f-d5e4-4515-9015-92ca40d0903b,stairs,,Grady,0,-11.258704630914021,2
623f7389044640d3955bf68a,abe51706-0eab-48c4-abc4-32cbb4ecd8f1,40.74924925086727,-73.97846018067618,ISIDOR,6320cb29ed4d370b3d9bc6c4,2022-09-13 18:25:45.591,2022-09-13 18:25:45.591,4450fa3c-d8e4-4c21-8656-cf5ebfc1d160,door,Double,Victor,0,4.278866025309067,2
623f7391044640d3955bf7b3,4e08dfbc-3589-4cc2-8811-3883be9501ae,40.749333218253575,-73.9786579467177,ISIDOR,6320cbaeed4d370b3d9bc723,2022-09-13 18:27:58.924,2022-09-13 18:27:58.924,0584c955-6f1a-4952-83af-287b2a3b9e4e,stairs,,Victor,0,-14.085249266608034,2
623f743c044640d3955bf8db,5fc3c3fe-d30f-48ca-a9c7-11b727eaad4f,40.74946728773949,-73.97897437629446,ISIDOR,6320cbbfed4d370b3d9bc786,2022-09-13 18:28:15.124,2022-09-13 18:28:15.124,738142c9-537b-4560-a3cd-5ecf5d85863c,door,Single,Victor,0,-1.0145579362583266,2
623f7525044640d3955bfa0e,bf52c18c-a182-42f9-ab3d-6b722d7e7fc4,40.74994233921071,-73.98009274537868,aboubacar ,638ceb7a057c8dc7104a3f6a,2022-12-04 18:48:26.443,2022-12-04 18:48:26.443,37f08974-52f5-423c-8799-236d75e4e19d,door,Double,Gavin,0,-8.25336904030331,2
623f752f044640d3955bfb3a,b617de12-0469-4025-8b39-9a4712efeb46,40.75007029316517,-73.98039592255567,ISIDOR,6320cbd9ed4d370b3d9bc7ef,2022-09-13 18:28:41.826,2022-09-13 18:28:41.826,44c9b857-7fd8-4531-8c5d-9bcf505a2937,door,Double,Gavin,0,7.935107806155674,2
623f766f044640d3955c2d69,d9688c3d-616c-4951-b9dc-88f188931650,40.75009975708428,-73.98046584234635,ISIDOR,6320cc587f191975152bfc9c,2022-09-13 18:30:48.236,2022-09-13 18:30:48.236,93437459-5022-4f2e-a4e3-fff7055e462c,door,Single,Victor,0,-4.789635178125483,2
623f7686044640d3955c2e9f,697bf105-ed47-47b7-b05e-85ebfe862120,40.750107310981896,-73.98088125602068,aboubacar ,638ceb76057c8dc7104a3ef2,2022-12-04 18:48:22.183,2022-12-04 18:48:22.183,54a7cff6-95fd-42db-a3f3-7921a8fefb30,door,Automatic,Gavin,0,-7.1944637580842885,3.0000000000000004
623f7694044640d3955c2fd0,238fb09c-2c85-443a-b562-708d0eae57d0,40.75002263782395,-73.98068003322972,jessielee,640e419d1b1991f09b6394d5,2023-03-12 21:18:21.996,2023-03-12 21:18:21.996,4561774d-102e-4140-a7e8-6bd7312ba78a,door,Single,jessielee,0,-7.027246500095845,2.0000000000000004
623f769e044640d3955c3105,775c37d1-efe2-446a-ba71-03cefc41e2ca,40.74992900615594,-73.98045741471424,jessielee,640e421c1b1991f09b6394ff,2023-03-12 21:20:28.398,2023-03-12 21:20:28.398,61b6dc0b-e538-4215-ac54-ea035efe5cc6,door,Single,jessielee,0,-6.471526091425169,2.0000000000000004
623f76a6044640d3955c323b,034e082d-2a6d-4d8c-94d1-b0cbba71e74d,40.74989686586962,-73.98038043143006,jessielee,640e40ce1b1991f09b6394ae,2023-03-12 21:14:54.365,2023-03-12 21:14:54.365,36b8d42f-de71-4b22-ae4a-d129dd8d58af,door,Single,jessielee,0,-18.837760904464343,2.0000000000000004
623f76af044640d3955c3375,2cbe69f1-32a3-4716-96d6-8c0bf392ad72,40.749848052313936,-73.98026391310913,jessielee,640e422f1b1991f09b63952f,2023-03-12 21:20:47.937,2023-03-12 21:20:47.937,1c20bb6f-f43b-490f-ba59-c25f563dcaa3,door,Double,jessielee,0,5.689764395564916,2.0000000000000004
623f76b9044640d3955c34b1,3dfa5b88-d654-4a15-a38f-a98206d72268,40.74981190845105,-73.9801793868946,jessielee,640e42371b1991f09b639566,2023-03-12 21:20:55.673,2023-03-12 21:20:55.673,3c87285b-4d1f-454f-a12f-f58b82b03117,door,Double,jessielee,0,7.452941212342407,2.0000000000000004
623f76c8044640d3955c35f7,f1901bce-f051-45db-bed2-620074bd84c0,40.74953390873656,-73.97981967481977,jessielee,640e42651b1991f09b6395ac,2023-03-12 21:21:41.557,2023-03-12 21:21:41.557,762e9a3f-bb0e-4a25-a4cd-c4585c817079,door,Double,Victor,0,-6.263834647308765,2.0000000000000004
623f76d0044640d3955c3736,24353966-0608-4ae5-99c7-2b4c39daa5b8,40.74940009273332,-73.97991842319432,jessielee,640e42831b1991f09b6395f6,2023-03-12 21:22:11.016,2023-03-12 21:22:11.016,26bc684c-dbae-49ff-8e4d-c59d5124d72f,door,Double,jessielee,0,-5.956154868388476,2.0000000000000004
623f76d8044640d3955c3874,6fa2a87f-abda-47bf-af11-f96c38e935e6,40.7491946994534,-73.98007060792264,jessielee,640e42b11b1991f09b639640,2023-03-12 21:22:57.857,2023-03-12 21:22:57.857,02ce9690-9399-4ddf-8705-898d0997a945,door,Single,jessielee,0,-4.9727846052197595,2.0000000000000004
623f7781044640d3955c6c24,0df49b3b-a179-4417-9b3f-340bc85e8adc,40.748807476166206,-73.9803574621921,jessielee,640e42c31b1991f09b639692,2023-03-12 21:23:15.193,2023-03-12 21:23:15.193,db952bd7-1f53-4cb7-93a7-896ab27cb03a,door,Double,Gavin,0,-4.664921356292123,2.0000000000000004
623f7789044640d3955c6d67,71135ea6-13d5-4c9b-9796-5af15e86302e,40.74861950105506,-73.98049638570747,jessielee,640e42d91b1991f09b6396eb,2023-03-12 21:23:37.297,2023-03-12 21:23:37.297,c17fad29-eba5-4f8a-b328-58636950ba0a,door,Single,jessielee,0,-5.481225068316986,2.9755282581475773
623f779f044640d3955c6eb1,bbdf9a2c-b7e5-4dfd-8868-69cb30dcb77b,40.747978869101665,-73.98097375595428,jessielee,640e445e1b1991f09b639742,2023-03-12 21:30:06.232,2023-03-12 21:30:06.232,ccd0e570-35b6-4c5a-bcd4-6f2d2bb37788,stairs,,jessielee,0,-13.281991363632487,3.0000000000000004
623f77ab044640d3955c6ffc,0a8139e5-34c3-4dd8-8663-76e17ac7150c,40.74743822956684,-73.98136728273514,jessielee,640e44dc1b1991f09b6397a4,2023-03-12 21:32:12.256,2023-03-12 21:32:12.256,e08aea9e-18ed-4037-817a-20a39549c51f,door,Revolving,jessielee,0,-5.963051883595953,2.0000000000000004
623f77b4044640d3955c714a,99995143-ded4-4a1d-a8aa-623344f4b7be,40.747041645956955,-73.98165646728138,jessielee,640e44ee1b1991f09b63980b,2023-03-12 21:32:30.679,2023-03-12 21:32:30.679,8529b083-92a5-4ac5-b3d8-0992c39322b6,door,Automatic,jessielee,0,-6.131540865020613,2.0000000000000004
623f77bd044640d3955c7294,cdfe7656-dbb5-4534-870a-99382557d88b,40.74682040040933,-73.98181761658033,jessielee,640e45041b1991f09b639871,2023-03-12 21:32:52.184,2023-03-12 21:32:52.184,a6deb402-b2b6-49b5-aca3-30f4474c0957,door,Automatic,jessielee,0,-5.209098680098648,3.0000000000000004
623f77c6044640d3955c73e2,7d8993e3-74cf-41b6-a0fb-9b60f50e78fd,40.746360638332945,-73.98215131180069,jessielee,640e452b1b1991f09b6398dd,2023-03-12 21:33:31.193,2023-03-12 21:33:31.193,9df52f5b-6cb3-4598-af41-91d77efb66ff,door,Double,Victor,0,-4.091986680435412,2.0000000000000004
623f77d8044640d3955c753a,8d230de7-3053-4ee5-8612-47ab570e15cc,40.74604256798283,-73.982379767152,jessielee,640e45541b1991f09b63995f,2023-03-12 21:34:12.494,2023-03-12 21:34:12.494,0c575c8c-9adb-43ae-831c-5c1a64f9fa03,door,Double,jessielee,0,-5.085672763341823,2.0244717418524236
623f77e2044640d3955c768c,402f7d13-0ef3-4d2c-8f40-4a85b4bb5043,40.74566252353926,-73.98257898557272,jessielee,640e45641b1991f09b6399db,2023-03-12 21:34:28.54,2023-03-12 21:34:28.54,8c2ef6f3-c98f-4f34-a38e-ec368689ef82,door,Double,jessielee,0,-7.752887060409667,2.0000000000000004
623f77ea044640d3955c77e3,87a13406-2d4b-40ac-92ec-a4305e8f0953,40.745489096259334,-73.9827046775205,jessielee,640e45691b1991f09b639a60,2023-03-12 21:34:33.863,2023-03-12 21:34:33.863,422c7e92-6fef-4750-bbc0-bcd9d7279940,door,Double,jessielee,0,-6.664512781114939,2.9755282581475773
623f78d1044640d3955caec7,eea8bf88-3581-4cc2-bc74-27d35aa8596b,40.74541937508829,-73.98275520793763,ISIDOR,6320ccd4ed4d370b3d9bc861,2022-09-13 18:32:52.72,2022-09-13 18:32:52.72,cc404621-6c92-4c8e-b24f-05938c9915f9,door,Double,Victor,0,-5.683676871897334,3.0000000000000004
623f78d9044640d3955cb01b,b9715cc6-41ab-4ee0-beed-89f7a8ac25c7,40.74534825005452,-73.98280675567818,ISIDOR,6320d0b3fb5ce5c937fe95df,2022-09-13 18:49:23.377,2022-09-13 18:49:23.377,c06822eb-3880-4bc0-a051-6d5c53b50705,door,Double,Victor,0,-6.78543944503473,3.0000000000000004
623f78e2044640d3955cb176,fcd97830-7c3c-419a-bf62-93398f71296b,40.74515980063146,-73.98294567819741,jessielee,64136bdf8394f34d0066d7c7,2023-03-16 19:19:59.478,2023-03-16 19:19:59.478,1964c014-4b47-47db-8a93-3a6b12083d06,door,Double,jessielee,0,-3.755639008477109,2.0000000000000004
623f78f1044640d3955cb42c,5bcac30f-9d74-446d-b636-7235c24c5472,40.74494708228431,-73.98310107322062,jessielee,64136c078394f34d0066d858,2023-03-16 19:20:39.054,2023-03-16 19:20:39.054,a9fce4c3-e55a-4922-990a-051e4ac8bde7,door,Double,Victor,0,-3.45114304967099,2.0000000000000004
623f78fc044640d3955cb5a0,88d819e0-ee17-44bf-8db6-60ebf1b5965a,40.74445049613619,-73.98345969075679,jessielee,64136c448394f34d0066d900,2023-03-16 19:21:40.633,2023-03-16 19:21:40.633,609ba4c3-6048-4938-a70b-2f7768a1da30,door,Double,Victor,0,-4.679805786123287,2.0000000000000004
623f7905044640d3955cb706,0796a33f-e837-4d86-b4c9-d2757fa00642,40.74436557861457,-73.98352161741045,jessielee,64136c4c8394f34d0066d9a6,2023-03-16 19:21:48.979,2023-03-16 19:21:48.979,67f8137c-31cd-4f99-87bc-042aa9e26e75,door,Double,Victor,0,-5.048881658549867,3.0000000000000004
623f7929044640d3955cb872,2a6a7473-9d4e-4f0d-8a0b-635879e9db0c,40.743665794847324,-73.98403227756658,jessielee,64136c938394f34d0066da45,2023-03-16 19:22:59.204,2023-03-16 19:22:59.204,ed950c10-f945-49d2-9b0f-2264a6bb5f56,door,Single,jessielee,0,-4.464594056335129,2.0000000000000004
623f7934044640d3955cb9dc,fa22ad18-cbaa-4dcb-be02-9997c422d1e8,40.74348790841902,-73.9841626773947,jessielee,64136cad8394f34d0066daf0,2023-03-16 19:23:25.403,2023-03-16 19:23:25.403,33403113-e7e8-4c08-a0ca-8650b12a59bd,door,Double,jessielee,0,-3.2043830945007903,2.0244717418524236
623f7945044640d3955cbb49,8c0a14c6-a7d0-4324-a2c8-ef841e319620,40.74323696588823,-73.98434773914452,jessielee,64136ccf8394f34d0066dba6,2023-03-16 19:23:59.906,2023-03-16 19:23:59.906,ecd7cb62-b3c7-417a-a2b6-3515699fdbf2,door,Double,jessielee,0,-5.602710945191736,2.0000000000000004
623f7a40044640d3955cf359,566e5cd1-2240-46ce-93ed-546194883098,40.742872230664126,-73.98461356947297,jessielee,64136cda8394f34d0066dc58,2023-03-16 19:24:10.924,2023-03-16 19:24:10.924,0762c197-c2e1-409b-ac44-9e6adcb80f4f,door,Double,Victor,0,-6.723984630340261,2.0000000000000004
623f7a55044640d3955cf4cb,8e715f1e-66f2-4e85-b62a-dae9c0201691,40.742062421509104,-73.98519548317532,jessielee,641a963dd8e63f2830fe0f2b,2023-03-22 05:46:37.095,2023-03-22 05:46:37.095,e9617caa-67b5-484d-916d-d3e385841914,door,Single,Victor,0,-5.317002952470879,2.0000000000000004
623f7a5d044640d3955cf796,0d016b59-9362-432b-8040-fe361602a591,40.74187089268374,-73.98533448301804,jessielee,641a9629d8e63f2830fe0e64,2023-03-22 05:46:17.222,2023-03-22 05:46:17.222,50f80c1f-e7be-4757-b2ad-e93e87880582,door,Single,Victor,0,-4.280855449843455,2.0000000000000004
623f7a65044640d3955cf90a,e92d6fc9-7ef2-42a3-af17-e9ba2a202fe6,40.74178422950396,-73.98539869993705,jessielee,641a965cd8e63f2830fe0ff7,2023-03-22 05:47:08.603,2023-03-22 05:47:08.603,786b0788-a1fc-4e9b-93e8-2cff9e3ae4ae,door,Double,jessielee,0,-4.979881781076473,2.0000000000000004
623f7a72044640d3955cfa7b,85733760-7f99-4598-855a-9bff923058fb,40.741682021597875,-73.9854733177371,jessielee,641a9705d8e63f2830fe10cb,2023-03-22 05:49:57.2,2023-03-22 05:49:57.2,aa3be749-b006-44a6-9912-d93ce3bce2bd,door,Double,jessielee,0,-3.0616125384849258,2.0000000000000004
623f7a7e044640d3955cfbf2,20f83f81-9784-45a3-ba17-adfb6b387151,40.74142168357037,-73.9856715929419,jessielee,641a97efd8e63f2830fe12d8,2023-03-22 05:53:51.161,2023-03-22 05:53:51.161,bf5b248e-d02a-4e0b-abf5-a6516cf44f71,door,Single,Victor,0,-3.2317379330946023,3.0000000000000004
623f7abb044640d3955cfd88,2eb0d5c7-6f18-42dc-8b26-5b58b931e3ba,40.73985224027579,-73.9867854117409,ISIDOR,6320cd47ed4d370b3d9bc8d7,2022-09-13 18:34:47.715,2022-09-13 18:34:47.715,c9a0d161-82b8-4d22-bf97-d07e0bcd3cfe,door,Double,Victor,0,-5.973337355032685,2.0000000000000004
623f7ac6044640d3955cff01,c30cba6e-8644-4daa-ba54-eb7b9baa6968,40.73949740426958,-73.98707166415778,jessielee,641a97d9d8e63f2830fe1207,2023-03-22 05:53:29.915,2023-03-22 05:53:29.915,6d7b7d4c-0b5d-44d2-936f-f106ad0f1430,door,Automatic,jessielee,0,-4.0389355919638845,2.9755282581475773
623f7ad0044640d3955d0076,91329b65-6693-46e6-8af0-41463f0e2fae,40.73918948858473,-73.98729731579941,jessielee,641a9800d8e63f2830fe13c3,2023-03-22 05:54:08.378,2023-03-22 05:54:08.378,1db71436-d9fb-404b-be33-89bc6a525830,door,Double,jessielee,0,-6.254801860072262,3.0000000000000004
623f7adf044640d3955d01f0,94843910-d5f2-4d5d-8182-6805a4b97b52,40.73871017164864,-73.98764738491549,jessielee,641a980ed8e63f2830fe14a4,2023-03-22 05:54:22.81,2023-03-22 05:54:22.81,ef0bad57-a9ee-4b77-8db1-59b62b97c5d2,door,Double,jessielee,0,-7.233150209592971,2.0000000000000004
623f7e06044640d3955e064b,4d2f70ce-86d7-4b89-ad5b-1d8d9cf71b2c,40.737901676178055,-73.98823594080066,jessielee,641a9829d8e63f2830fe158b,2023-03-22 05:54:49.937,2023-03-22 05:54:49.937,1063e322-95c2-4d58-a85f-641ceea555b3,door,Double,Victor,0,-4.028234927612194,2.0000000000000004
623f7e1e044640d3955e0828,2229f66a-6a6d-4916-a45a-717790a083f6,40.73722399151037,-73.98833623102867,jessielee,641a9830d8e63f2830fe1685,2023-03-22 05:54:56.221,2023-03-22 05:54:56.221,239bd6f2-3849-4b82-84eb-db999489de33,door,Double,Victor,0,-6.230031714704135,2.0000000000000004
623f7e2d044640d3955e09fb,3f40b3a8-52d6-4e58-a836-6d96119107d9,40.73682382740834,-73.9886477114878,jessielee,641a9842d8e63f2830fe177a,2023-03-22 05:55:14.06,2023-03-22 05:55:14.06,5087289f-abbe-4c8d-bbd4-29e5921050e1,door,Single,Victor,0,-9.005323242967043,2.0000000000000004
623f7e35044640d3955e0bc7,1e76b4fe-b5e1-4c33-8c47-b38fec473c1b,40.73674833718146,-73.98870459853205,jessielee,641a9864d8e63f2830fe187a,2023-03-22 05:55:48.603,2023-03-22 05:55:48.603,e8503ebe-b455-46b5-9391-e06ea2113c90,door,Single,jessielee,0,-6.069125394723746,2.0000000000000004
623f7e40044640d3955e0da2,ae9fbe5a-89f9-4a6d-a6f3-55016945b037,40.736348025373665,-73.98900323632634,jessielee,641a986dd8e63f2830fe1991,2023-03-22 05:55:57.858,2023-03-22 05:55:57.858,91ea9eac-7107-4793-a5d4-6a2888b7fe53,door,Double,Victor,0,-8.208259797961983,2.0000000000000004
623f7e48044640d3955e0f77,3e97d0f5-8ebe-4a5c-9fb4-a9194276dd93,40.736195882271396,-73.98911689092405,jessielee,641a98a0d8e63f2830fe1a98,2023-03-22 05:56:48.798,2023-03-22 05:56:48.798,f3990974-698e-44ee-92c2-5a8c49058395,door,Single,jessielee,0,-7.226473473974052,2.0000000000000004
623f7e5b044640d3955e1158,de4999d5-5e8e-4ef7-85e8-20ac3cbac066,40.735783122762285,-73.98938136907569,jessielee,641a9a2fd8e63f2830fe23fc,2023-03-22 06:03:27.497,2023-03-22 06:03:27.497,06bc2b9c-5cf0-46a0-a23a-1ab744354a99,door,Open,jessielee,0,-5.320541141176549,2.0000000000000004
623f7e62044640d3955e132c,af949b5d-acb5-43f5-b0b2-367c63bd1c8b,40.735752229587426,-73.98940389955789,jessielee,641a98c3d8e63f2830fe1bb7,2023-03-22 05:57:23.353,2023-03-22 05:57:23.353,3afbaede-88ce-42a7-8f93-4ed1a158c9ef,door,Double,Victor,0,-5.910606398115521,2.0000000000000004
623f7e6b044640d3955e1508,d4844560-3ac3-47a2-9da8-51b9ce2d0a83,40.73566463697986,-73.98946778096945,jessielee,641a98dfd8e63f2830fe1ccb,2023-03-22 05:57:51.443,2023-03-22 05:57:51.443,799735b6-2fac-4cfb-917b-2c507ca15f22,door,Double,Victor,0,-5.323160578008415,2.0000000000000004
623f7e73044640d3955e16ec,5eb8525a-05eb-4a61-935c-f86772d1729f,40.73549614481839,-73.98959066199205,jessielee,641a99add8e63f2830fe1df7,2023-03-22 06:01:17.93,2023-03-22 06:01:17.93,b0cf4a7d-7fe8-4922-907f-961d2a2bb792,door,Double,Gavin,0,-6.2691474144212105,2.0000000000000004
623f7f77044640d3955e64ee,5dd11a12-8c59-4389-b586-36ebe6d69267,40.73541049842384,-73.9896535801651,jessielee,641a99b8d8e63f2830fe1f1c,2023-03-22 06:01:28.471,2023-03-22 06:01:28.471,e090a1cb-128b-4824-8c14-06afffab9457,door,Double,Gavin,0,-0.4932671740649126,2.0000000000000004
623f7f81044640d3955e66dc,b2de1fa1-5a09-49f4-89a5-d27b0ea35cea,40.73499260881416,-73.98982568588565,jessielee,641a99d9d8e63f2830fe204a,2023-03-22 06:02:01.642,2023-03-22 06:02:01.642,43b2d3b5-b3e2-48a2-bbf1-0df9a7559d09,door,Single,Gavin,0,-4.271622578893928,2.0000000000000004
623f7f89044640d3955e68c6,df158d50-16e2-4ed1-adf5-93cbcc62088f,40.73500744850437,-73.9898274017336,jessielee,641a99edd8e63f2830fe2181,2023-03-22 06:02:21.071,2023-03-22 06:02:21.071,70f1a481-936d-4d0c-af09-275e265267a7,door,Single,Victor,0,-4.462633950748333,2.0000000000000004
623f7f93044640d3955e6ab0,3b694d52-0cbc-43da-ab29-94d412870085,40.73479968182563,-73.9898033786586,jessielee,641a9a2ed8e63f2830fe22bd,2023-03-22 06:03:26.469,2023-03-22 06:03:26.469,6d379482-88ed-4c0b-b056-0a5c35d393c1,door,Revolving,Gavin,0,-3.101111005471658,2.0000000000000004
623f8064044640d3955e6e94,d2be9e28-affd-4034-b67c-f97dd2ae8000,40.73379992184129,-73.98972062930166,jessielee,641a9a85d8e63f2830fe267c,2023-03-22 06:04:53.753,2023-03-22 06:04:53.753,009e62f2-c005-4e2e-8ba4-38645ac41753,door,Double,jessielee,0,-6.930104541996826,2.0000000000000004
623f806c044640d3955e7080,39d4307f-d957-4369-9e65-ed52a637a2cd,40.733666540435316,-73.98973195414288,jessielee,641a9c42d8e63f2830fe2a6f,2023-03-22 06:12:18.975,2023-03-22 06:12:18.975,4511f5eb-7405-4caf-a7fa-7d14fb903bf4,door,Single,Gavin,0,-7.92256944850896,2.0000000000000004
623f8074044640d3955e744e,58b3e672-5a2c-44a5-9343-a162109b3bcd,40.733582298104864,-73.98973910677314,jessielee,641a9ad6d8e63f2830fe2918,2023-03-22 06:06:14.205,2023-03-22 06:06:14.205,917180c2-0cae-42bd-b173-46d2e4237f03,door,Double,Gavin,0,-7.735850722264954,2.0000000000000004
623f807c044640d3955e763e,68fd8f17-d51e-4bba-af56-7853219a9044,40.73335549910583,-73.98976163110498,jessielee,641a9c4cd8e63f2830fe2bd2,2023-03-22 06:12:28.447,2023-03-22 06:12:28.447,c13b18cb-c281-4cf2-a611-2800f15eaa93,door,Double,Victor,0,-5.637204017820667,2.0000000000000004
623f809c044640d3955e7835,774288bd-4f50-4fb0-9e3a-cb2a3870aeb0,40.733183071219145,-73.98925506481862,jessielee,641a9acad8e63f2830fe27c9,2023-03-22 06:06:02.499,2023-03-22 06:06:02.499,0aeafdea-53d7-43e4-b826-f5eece9bb21e,door,Double,Gavin,0,-8.139339359623582,2.0000000000000004
6240ede67fd4ce55f6ea66e1,db7e527d-aa94-44ed-b4bf-63eefd55eab3,40.74475695817147,-73.98573901960484,Gavin,6254fbd72c2fb4302106ae7a,2022-04-12 04:11:03.865,2022-04-12 04:11:03.865,1e3d3498-4365-45d4-9ce1-dd2830ee5f9d,door,Double,Gavin,0,-0.5271429886325689,1.0000000000000002
6240ee147fd4ce55f6ea68d5,95291b76-8d9a-43e6-bc8f-2ac5f174b6c9,40.74509626462731,-73.9865435937882,Gavin,6254fc082c2fb4302106b72e,2022-04-12 04:11:52.027,2022-04-12 04:11:52.027,42623ab5-ef4c-4119-968a-012427a23eee,door,Double,Gavin,0,-5.742222399327252,1.0000000000000002
6240ee7a7fd4ce55f6ea6baa,04d1f523-5e83-484c-a317-0232f0892f84,40.7450758752647,-73.98720602065927,Gavin,6254fc2e2c2fb4302106bff2,2022-04-12 04:12:30.91,2022-04-12 04:12:30.91,94c126c3-0a80-4bbd-afd7-94bd37412d85,door,Double,Victor,0,-3.1815506892439895,1.0000000000000002
624100c57fd4ce55f6ea7469,149014ef-2e52-48de-a603-ee2adf5aef4c,40.74852278248775,-73.97590208096354,jessielee,641a9c5fd8e63f2830fe2d33,2023-03-22 06:12:47.474,2023-03-22 06:12:47.474,8f0f1054-2f73-456d-9b4f-a488aac97e03,door,Double,Victor,0,-4.925458844152227,2
6241011a7fd4ce55f6ea7674,148bb865-37bb-4efa-bab7-302ce26fa72b,40.748869164733904,-73.97409274385063,jessielee,641d22585ea0ff3a54e2dfcb,2023-03-24 04:08:56.141,2023-03-24 04:08:56.141,3bba3cee-dfeb-4446-a75a-88023ec47c68,door,Single,jessielee,0,-4.727633038201993,2.0308250020802125
6241012b7fd4ce55f6ea7a5c,02a30015-e093-414a-b978-0bbd3e861db5,40.748758325583516,-73.97383026385359,jessielee,641d22de5ea0ff3a54e2e14f,2023-03-24 04:11:10.009,2023-03-24 04:11:10.009,d5b277e7-81ec-43dc-8ef4-53bd7bed52ed,stairs,,Gavin,0,-13.813486930046295,2
624104a47fd4ce55f6ea7c70,d41bddfd-ed17-49f9-a66c-93f52cd390d3,40.748348149515365,-73.97442235456452,jessielee,641d22f65ea0ff3a54e2e2cb,2023-03-24 04:11:34.642,2023-03-24 04:11:34.642,080e8574-7774-47bb-91d0-5256fa3c76a7,door,Single,Victor,0,-7.638751286339301,2
624105537fd4ce55f6ea7e72,3c6f09db-1df8-4e5f-9e56-0d79ff85b458,40.74859069688589,-73.97538583667702,jessielee,641d34f2a030d3f6c7aa279c,2023-03-24 05:28:18.223,2023-03-24 05:28:18.223,b329bc1e-1531-4e48-827f-80c3d4dba254,door,Single,jessielee,0,-4.603633615920557,2
6241055d7fd4ce55f6ea8070,40049718-9c09-4a8f-8ad6-a6ea8d16481e,40.748547990412916,-73.97528656511193,jessielee,641d34f8a030d3f6c7aa2924,2023-03-24 05:28:24.533,2023-03-24 05:28:24.533,eb8e2d93-0f34-4915-8551-dda9f3fda93b,door,Double,Victor,0,-6.416787925101474,2
624105767fd4ce55f6ea8278,dfc844a8-707a-4d7b-aad9-ea304082366e,40.74895465645189,-73.97624644769836,jessielee,641e53f9bc6a6dec9267b6d2,2023-03-25 01:52:57.644,2023-03-25 01:52:57.644,5648bdd6-97ac-4d83-a968-cc633702e923,door,Single,Victor,0,-5.177889405244007,2
624105867fd4ce55f6ea8481,47c03614-124a-4d17-96c0-5487335822b3,40.749194432928235,-73.97641213146562,jessielee,641e5429bc6a6dec9267b86d,2023-03-25 01:53:45.817,2023-03-25 01:53:45.817,c6d1e1cd-4407-4289-afe3-cfac1d86387a,door,Double,jessielee,0,-11.719105654165046,2
624108807fd4ce55f6ea8685,bc2a0786-3398-4e35-bfe8-ea65a9afd601,40.7491515336592,-73.97671301741717,jessielee,641e544abc6a6dec9267ba03,2023-03-25 01:54:18.98,2023-03-25 01:54:18.98,689b6bf8-dd5b-42e5-b618-973bb57b9c99,door,Single,Victor,0,-3.2532362960477723,2
6241d52a7fd4ce55f6eaf2f6,79281a46-5b58-4cc3-9d8d-3356e3a51da2,40.7576803,-73.9794426,Gavin,625504f92c2fb43021078500,2022-04-12 04:50:01.499,2022-04-12 04:50:01.499,b978a855-89ce-4167-8b20-7fe3f4d76752,door,Revolving,Hiba,0,2.226790277013569,1.0000000000000002
6241d6307fd4ce55f6eaf694,725cbe63-8070-4daa-92de-74af237331a4,40.7661111187608,-73.98372404918793,Gavin,625505032c2fb43021078e11,2022-04-12 04:50:11.446,2022-04-12 04:50:11.446,e8d297af-548f-4550-93c5-28d2d33088af,door,Single,Hiba,0,-4.795730765581726,1.0000000000000002
6241d67f7fd4ce55f6eaf8c6,2ffcb6f2-059e-4fdf-bb78-9c2d5d79b4a5,40.766113709266726,-73.98373017747407,Gavin,625508b52c2fb4302107972f,2022-04-12 05:05:57.026,2022-04-12 05:05:57.026,1548cd8a-22f1-46d9-a834-8bdf6fbe51c1,door,Single,Hiba,0,-7.006398149087737,1.0000000000000002
6241d6cb7fd4ce55f6eafb02,ac12de8c-a3ab-4db0-aea6-35741c4a4393,40.76620571326937,-73.98394944650552,Gavin,625509012c2fb4302107a057,2022-04-12 05:07:13.965,2022-04-12 05:07:13.965,fa99986a-c86f-46f2-acf6-c1e1ff209ee4,door,Single,Victor,0,-7.578771448026448,1.0000000000000002
6241d7297fd4ce55f6eafd4b,05cfe017-a5f2-4844-8a8d-08306453c153,40.76645023000207,-73.9845284141251,Gavin,6255090c2c2fb4302107a976,2022-04-12 05:07:24.313,2022-04-12 05:07:24.313,a6e81018-48f1-44f6-aec1-79be6ea96ef1,door,Single,Victor,0,-10.039706252402441,1.0000000000000002
6241d78c7fd4ce55f6eaffa1,69c86fe6-7ef7-4de3-8089-24e9699ac3da,40.766619401518646,-73.98492943994404,Gavin,6255093e2c2fb4302107b29f,2022-04-12 05:08:14.688,2022-04-12 05:08:14.688,933e813e-c79e-4d91-8e59-9fcb495ad324,stairs,,Gavin,0,-9.885686212405934,1.0000000000000002
6241d7d47fd4ce55f6eb0210,4f601779-6c58-4d59-8d74-3659542e5a2a,40.765613704051304,-73.98759487739444,Gavin,6255099a2c2fb4302107bbd5,2022-04-12 05:09:46.114,2022-04-12 05:09:46.114,0220e12c-366f-4fc0-8a28-be764cbd41e4,door,Single,Victor,0,-3.7519116381450606,1.0000000000000002
6241d8437fd4ce55f6eb047d,76cba2df-498d-4b05-a2ae-49f955f112e8,40.76594117839408,-73.98735623398163,Gavin,625509f02c2fb4302107c50f,2022-04-12 05:11:12.305,2022-04-12 05:11:12.305,5272ab0c-5fb3-42b2-b643-e1ec713d35df,door,Double,Victor,0,-3.550238611825993,1.0000000000000002
6241d8867fd4ce55f6eb06fc,e74b91eb-83c8-45d9-83ff-47c6ab42ae43,40.76619877522014,-73.98740412042241,Gavin,6255872c2c2fb430210a43ff,2022-04-12 14:05:32.449,2022-04-12 14:05:32.449,56851fd1-628a-4a4e-91c4-a8ab5fc15ce8,door,Single,Gavin,0,-2.0776478012870907,1.0000000000000002
6241d8eb7fd4ce55f6eb0995,bedeb3fa-dad4-4d51-926b-7edd3664e2eb,40.76571687808576,-73.9862737384341,Gavin,625587432c2fb430210a4de0,2022-04-12 14:05:55.515,2022-04-12 14:05:55.515,88f25647-9696-4f32-8617-7293b18b48d1,door,Single,Hiba,0,-6.110408556890433,1.0000000000000002
6241d9547fd4ce55f6eb0c49,aac26c6e-4770-4b6e-a9f8-6c88bacba590,40.76510271758295,-73.98481679545417,Gavin,625587652c2fb430210a57d8,2022-04-12 14:06:29.404,2022-04-12 14:06:29.404,4cfc3e81-d48a-4c8a-b755-87c89febcecd,door,Double,Hiba,0,1.3048264901022286,1.0000000000000002
6241d9a67fd4ce55f6eb0f06,5d473ed3-81ae-4cd7-9621-5d6b5145d179,40.76505946637147,-73.98389595259961,Gavin,625587bd2c2fb430210a61d0,2022-04-12 14:07:57.077,2022-04-12 14:07:57.077,92852c05-d759-4298-9775-9cf4607f8150,door,Automatic,Gavin,0,-3.6896353145050895,1.0000000000000002
6241da4c7fd4ce55f6eb11c6,09cfcebb-2f77-45e7-b001-e77e2b30f65c,40.76577951959403,-73.9837637203029,Gavin,625588342c2fb430210a6bc2,2022-04-12 14:09:56.105,2022-04-12 14:09:56.105,9cde1a6b-9fcb-4209-acf1-dc7aa351fd22,door,Single,Hiba,0,-3.324379093664396,1.0000000000000002
6241daf07fd4ce55f6eb152e,1b722110-c807-4bed-a8df-c9ca40359341,40.714589628773645,-74.00741349021217,Gavin,625379d22c2fb43021fc5472,2022-04-11 00:44:02.711,2022-04-11 00:44:02.711,d0256272-4231-4537-98e2-cd100fc8cfab,door,Single,Hiba,0,-5.175009020082035,1.0000000000000002
6241db287fd4ce55f6eb1807,ac2f0205-dc16-4634-8b4e-2fd15131bd2d,40.71465913073543,-74.00756503687222,Gavin,625379512c2fb43021fc53e4,2022-04-11 00:41:53.088,2022-04-11 00:41:53.088,6011b93a-9ccb-47b4-95b0-94fc2170c86f,door,Single,Hiba,0,-7.50512281554423,1.0000000000000002
6241db637fd4ce55f6eb1ae9,960b3b67-6ee4-46d1-b829-134f3a875efe,40.71469501416553,-74.00764378106632,Gavin,625379292c2fb43021fc52b5,2022-04-11 00:41:13.674,2022-04-11 00:41:13.674,bbd5f4c2-4edf-42bb-acf0-4c956085cffb,door,Single,Hiba,0,-7.218513139018395,1.0000000000000002
6241db9d7fd4ce55f6eb1dfd,cddb81ea-893d-4c63-a3bc-a34f041d043f,40.715112817579275,-74.00856209966224,Gavin,625378c72c2fb43021fc521f,2022-04-11 00:39:35.91,2022-04-11 00:39:35.91,063d3b50-a410-4994-892e-11242f664fe2,door,Single,Hiba,0,-6.12890349069246,1.0000000000000002
6241dbd97fd4ce55f6eb20fd,d1cf096b-0f64-4d0e-b8f1-90c1afa0f4d2,40.71521104037736,-74.008778662545,Gavin,62537d802c2fb43021fc688d,2022-04-11 00:59:44.031,2022-04-11 00:59:44.031,349b6c90-cad0-45be-ae70-f1454a16e672,door,Single,Hiba,0,-6.533743038727454,1.0000000000000002
6241dbf77fd4ce55f6eb240f,22018623-7927-460e-bf55-f548d2c6e01b,40.71528613354404,-74.00894496520355,Gavin,62537e782c2fb43021fc71bf,2022-04-11 01:03:52.924,2022-04-11 01:03:52.924,d9cf0d17-200a-42f4-a68d-47f16bc7289a,door,Double,Victor,0,-5.9920700268265445,1.0000000000000002
6241dc327fd4ce55f6eb2726,d537556c-a038-4de7-ab21-afda21ff5622,40.71521508010718,-74.00964771553042,Gavin,6254557f2c2fb43021fe8fb1,2022-04-11 16:21:19.119,2022-04-11 16:21:19.119,97d15d80-e1b4-4a77-b5bc-a7c0e1eebca3,door,Single,Hiba,0,-4.618386810617807,1.0000000000000002
6241dc667fd4ce55f6eb2a45,16117cd3-5e70-4c52-bfec-006df9279bb1,40.71526235688672,-74.0096107901938,Gavin,625455d52c2fb43021fe9341,2022-04-11 16:22:45.844,2022-04-11 16:22:45.844,b45b4312-5a33-45b5-a824-fcdceab0fab5,door,Single,Gavin,0,-4.731962984150136,1.0000000000000002
6241dc887fd4ce55f6eb2ad2,e2f0246f-f6d6-48ff-9cdd-173796370f6f,40.71506062904964,-74.01012816533807,Gavin,62535be92c2fb43021fc4723,2022-04-10 22:36:25.26,2022-04-10 22:36:25.26,9cdcab80-511d-4f73-a64e-cb637b44c7e8,door,Double,Victor,0,-4.635221475866383,1.0000000000000002
6241dce87fd4ce55f6eb30c8,6da8b365-c23e-4d28-a5fb-00558084ce60,40.71511742325077,-74.01025356824769,Gavin,62535c122c2fb43021fc476f,2022-04-10 22:37:06.052,2022-04-10 22:37:06.052,0530fe17-da58-40d2-a738-17085aba5ddf,door,,Hiba,0,-2.7924930165495083,1.0000000000000002
6241dd537fd4ce55f6eb3432,2a225737-fb08-426d-af09-85f56cd9d53f,40.71666405813368,-74.00406052768794,Victor,6256e4842c2fb43021196bee,2022-04-13 14:56:04.989,2022-04-13 14:56:04.989,57376cdb-e76c-4ea5-bf89-db67dd7042e9,door,Single,Gavin,0,-2.6988192136214475,1.0000000000000002
6241dda97fd4ce55f6eb3805,51440fcd-b739-450e-a786-8568a8f62f76,40.71653115094456,-74.00417487080877,Victor,6256e48f2c2fb430211973fe,2022-04-13 14:56:15.151,2022-04-13 14:56:15.151,b5cfbfe5-4aef-44b0-b312-94dc044910e9,door,Double,Hiba,0,-5.750755350530631,1.0000000000000002
6241ddd77fd4ce55f6eb3b61,157babcd-b402-4652-b776-d28ebe12d96e,40.71641556697062,-74.00427394286915,Victor,6256e49b2c2fb43021197c11,2022-04-13 14:56:27.862,2022-04-13 14:56:27.862,d3e4dadd-4689-4bfe-a07c-9eaebefe5f82,door,Automatic,Victor,0,-4.393773936068654,1.0000000000000002
6241de407fd4ce55f6eb3f9b,edffeaae-0b93-4034-a4ea-6ce0194baecd,40.715608700000004,-74.0067444,Victor,6256e4a52c2fb43021198426,2022-04-13 14:56:37.552,2022-04-13 14:56:37.552,6ddfc2e0-1c4a-489e-849c-8f4dadccd7dd,door,Single,Victor,0,-14.695116097964732,1.0000000000000002
6241de867fd4ce55f6eb4318,659be45f-c625-4c6b-8b02-fbb62cf48aa7,40.719673304909165,-74.01007939224654,Victor,6256e4ba2c2fb4302119a53d,2022-04-13 14:56:58.511,2022-04-13 14:56:58.511,48aa5999-0faf-453d-9c4d-007aac4104af,door,Single,Victor,0,-6.566511239483042,1.0000000000000002
6241de9c7fd4ce55f6eb4697,42134074-3721-421a-bd3d-cd69daa70dd4,40.7197819734716,-74.01006166235939,Victor,6256e5112c2fb4302119caf9,2022-04-13 14:58:25.1,2022-04-13 14:58:25.1,cbc73c72-9cc2-41a6-be9f-117a27b946e7,door,Double,Hiba,0,-5.0982800188962125,1.0000000000000002
6241dee67fd4ce55f6eb4a2c,0d7a284f-7fb8-472c-b632-f2bb8d92a796,40.72013700773401,-74.00961634960154,Victor,6256e5252c2fb4302119d324,2022-04-13 14:58:45.889,2022-04-13 14:58:45.889,45869c8e-892b-415e-b6ad-1964b659b90d,stairs,,Gavin,0,-10.41457073083605,1.0000000000000002
6241df277fd4ce55f6eb4dcc,5bd9f46a-23c3-4087-a1e3-56ee4b058f32,40.7201039168283,-74.00924295473794,Victor,6256e54c2c2fb4302119db61,2022-04-13 14:59:24.589,2022-04-13 14:59:24.589,99dc34c5-7133-4b59-9d57-efe052f37089,door,Single,Victor,0,-2.9240032100958646,1.0000000000000002
62439d1cd03d0d318110409a,c2d25d20-dab0-4e40-aede-9c61e4b3c4b5,40.72757148078461,-73.98694123474112,Muztahidul chowdhury,629eafcf6ae9b8a94d39b7b0,2022-06-07 01:54:23.119,2022-06-07 01:54:23.119,36c137e8-44e4-4c6c-886c-072d9edb813b,stairs,,Victor,0,-8.937802843898515,2
62439d25d03d0d31811042b3,4b1c6cff-a8dd-457e-a33a-9aef995eb7c5,40.72734481963312,-73.98679504756977,Muztahidul chowdhury,629eb0416ae9b8a94d39d80b,2022-06-07 01:56:17.045,2022-06-07 01:56:17.045,f2126627-8b34-4a19-b3b4-039b31d4f29a,door,Single,Victor,0,-5.397241339525586,2
62439d30d03d0d31811044c4,ed7bd99c-8743-4f63-b806-6f4891f16b80,40.72740836637537,-73.98655476892323,Muztahidul chowdhury,629eb0a96ae9b8a94d3a03b5,2022-06-07 01:58:01.502,2022-06-07 01:58:01.502,03d54581-0220-4cfc-9c5d-4cf7c01f0abd,door,Single,Victor,0,-6.782765828222781,2
62439d38d03d0d31811046d3,48384b0c-8b90-408f-b4d3-73f3833b2222,40.727256820760566,-73.98658716981984,Muztahidul chowdhury,629eb0aa6ae9b8a94d3a0ad1,2022-06-07 01:58:02.682,2022-06-07 01:58:02.682,c068a0ef-8c48-4c39-873b-e2981d3a0fa5,door,Single,Victor,0,-6.652773948606653,2
62439d41d03d0d31811048f0,0363e58b-6b2b-4d4f-8a8c-a3dc908a08d7,40.72716633629509,-73.98637051724695,Muztahidul chowdhury,629eb0b56ae9b8a94d3a1205,2022-06-07 01:58:13.03,2022-06-07 01:58:13.03,feebc11a-3822-4060-93ff-0bfa164fe3f8,door,Single,Victor,0,-5.931511574973083,2
62439d63d03d0d3181104d21,4841e123-f20d-4c3a-b74a-afb6448673e5,40.72681276058716,-73.98515243409237,jessielee,641e5480bc6a6dec9267bd53,2023-03-25 01:55:12.886,2023-03-25 01:55:12.886,7f09c55f-6573-4f88-9f7f-ac44ccb8bf84,stairs,,Gavin,0,-8.696399628094618,3.0000000000000004
62439d6cd03d0d3181104f37,eaa96c98-3aca-4849-8e50-8f8a5531b2a4,40.72665697521348,-73.98517658725297,jessielee,641e5490bc6a6dec9267bef9,2023-03-25 01:55:28.949,2023-03-25 01:55:28.949,9ee91bac-4273-40bf-a0a2-cf9faf26201a,door,Single,Gavin,0,6.172898212957982,2.0000000000000004
62439d74d03d0d3181105155,174d2da1-d5ed-4ffd-a3ba-065c92538eeb,40.726622788641784,-73.98509503585655,jessielee,641e549ebc6a6dec9267c0a8,2023-03-25 01:55:42.117,2023-03-25 01:55:42.117,546f1634-bbf1-4792-ba86-4dc5b7145686,door,Double,Gavin,0,1.4615098983818446,2.0000000000000004
62439d84d03d0d3181105376,1c1ef657-b766-4945-a49f-6f8c3a37dee3,40.72642224687073,-73.98461978282997,jessielee,641e54acbc6a6dec9267c25c,2023-03-25 01:55:56.415,2023-03-25 01:55:56.415,7e537bd8-3500-47ad-b448-c80c07baddfe,door,Double,Gavin,0,0.3440182731120777,2.0000000000000004
62439d8cd03d0d3181105593,8d14e363-bc52-411e-908d-ef1931d415f0,40.72656138132163,-73.98455643155327,jessielee,641e54bfbc6a6dec9267c414,2023-03-25 01:56:15.252,2023-03-25 01:56:15.252,0434b77c-23ff-4a6c-bead-7325d20934b6,door,Single,Gavin,0,-6.221778406369599,3.0000000000000004
62439e92d03d0d318110ae84,cacccbf3-3ab5-421c-92f8-2e5e7b1d08ea,40.72639105285559,-73.98454583017545,jessielee,641e772e24a2c613877143f7,2023-03-25 04:23:10.844,2023-03-25 04:23:10.844,62282a6d-e495-4bff-90ca-49218b355b75,door,Double,Victor,0,1.5247953461162784,2.0000000000000004
62439ea3d03d0d318110b0ac,5cf5995b-17b1-4739-97f3-e293577f3054,40.72638011828499,-73.98412658617136,jessielee,6480cbeaea8ad219be0d9c8e,2023-06-07 18:26:50.556,2023-06-07 18:26:50.556,5644b4d4-e9a1-4945-9013-24a4acf83e31,stairs,,Gavin,0,-16.999784214978053,2.0000000000000004
62439eaed03d0d318110b2d0,2c8d0934-d5dc-4165-b512-7257b4056457,40.72633315797431,-73.98401416605337,elmtang1,64b55a57514619500e2f21ba,2023-07-17 15:12:23.954,2023-07-17 15:12:23.954,41668260-fe9a-4754-955d-ec76e5639c3f,door,Single,Gavin,0,-13.683358199090218,2.0000000000000004
62439eb7d03d0d318110b4f2,ffa3c496-a4a4-493f-a28f-ff719adf89b9,40.7262866335897,-73.98390317840821,Angelina,64b55ab8514619500e2f3132,2023-07-17 15:14:00.564,2023-07-17 15:14:00.564,11b49a62-ffc4-47fc-8ac8-f012ca2cd93b,door,Single,Gavin,0,-7.072021295488789,2.0000000000000004
62439ec4d03d0d318110b71c,517ca573-a24f-455d-bbfd-a6cf2ed0c39c,40.72626014103194,-73.98384066337542,Angelina,64b55ad1514619500e2f4d20,2023-07-17 15:14:25.215,2023-07-17 15:14:25.215,0653f2fa-2b4a-4588-a093-d484d5280fef,door,Double,Gavin,0,-6.263519118462585,2.0000000000000004
62439ed2d03d0d318110b94d,063de0d0-b366-4cdd-a841-59041959883a,40.725928966742494,-73.98346317117726,Emily Tong,64b55b64514619500e2f88e6,2023-07-17 15:16:52.364,2023-07-17 15:16:52.364,dc35ff06-ee41-4945-98e1-8caabe79fd48,stairs,,Gavin,0,-13.852581807783592,3.0000000000000004
62439eebd03d0d318110bb7b,92c0a39a-7fe9-4872-a539-0d7dba6aaa0f,40.72520892630493,-73.98355114794367,Emily Tong,64b55b37514619500e2f6af8,2023-07-17 15:16:07.755,2023-07-17 15:16:07.755,633df92c-063e-4549-b5f7-0680db85296c,door,Single,Victor,0,-6.6311733418683385,3.0000000000000004
62439ef5d03d0d318110bda5,891a9d6b-5b7d-4a3d-b6dd-43b41a680eb1,40.725182194820505,-73.98348746413063,Emily Tong,64b55b40514619500e2f793e,2023-07-17 15:16:16.021,2023-07-17 15:16:16.021,65719ea7-a4b8-4c91-9635-d52d1886635a,door,Single,Gavin,0,-5.299803408385732,2.0000000000000004
62439efcd03d0d318110bfd7,199fcdc7-c93d-4ca2-b570-634718554ed8,40.72512518689473,-73.98335044385666,Emily Tong,64b55b49514619500e2f87a0,2023-07-17 15:16:25.648,2023-07-17 15:16:25.648,326e5981-f773-45c6-a5d7-cff6e9a6a7c8,door,Single,Victor,0,-4.622662659305868,2.0000000000000004
62439f05d03d0d318110c20b,070df957-581e-4af5-8cb4-924eba06742f,40.725091906036035,-73.98327121721927,Emily Tong,64b55b51514619500e2f87d5,2023-07-17 15:16:33.809,2023-07-17 15:16:33.809,84946b02-d69e-4231-ad78-f985bd823ca1,door,Double,Victor,0,-5.492344318186139,2.0000000000000004
6243a002d03d0d3181111e54,b02763d5-d151-40eb-adf9-6b0c7868d52e,40.72500078183007,-73.9830555397399,Lucas ,64b55bda514619500e2fc4a0,2023-07-17 15:18:50.76,2023-07-17 15:18:50.76,49c15049-820b-490c-8075-bd925d668b25,door,Single,Victor,0,-7.13610504266639,2.0000000000000004
6243a011d03d0d318111208f,588cf23d-0d73-4561-aa2f-66f8a5e40c49,40.7249634573482,-73.98296580226139,Yu Yin Lin,64b55b89514619500e2f9a87,2023-07-17 15:17:29.901,2023-07-17 15:17:29.901,1e622aca-f4a3-497e-86e1-656993da3cbc,door,Single,Victor,0,-6.708479423089242,2.0244717418524236
6243a018d03d0d31811122c8,7c7a108c-50ea-40f9-808c-63e8b984d0b7,40.725106278184946,-73.98288324377354,Yu Yin Lin,64b55bb2514619500e2fab9e,2023-07-17 15:18:10.216,2023-07-17 15:18:10.216,63eb2c12-0292-4a42-b09d-1bcfe724398a,door,Single,Victor,0,-7.012191840522868,2.0000000000000004
6243a02ad03d0d318111250c,a22a654d-aa92-4f39-840b-ebae1391a399,40.72502544264284,-73.98269080620412,Emily Tong,64b55bbf514619500e2fbf9c,2023-07-17 15:18:23.413,2023-07-17 15:18:23.413,34dae827-d5a0-4c03-8c54-a9e0fac86f41,door,Single,Victor,0,-6.478452900325929,2.0000000000000004
6243a034d03d0d318111274f,2cbf9799-9e1c-4b20-9373-089283956467,40.724970711297225,-73.98256080226997,Emily Tong,64b55bcf514619500e2fc3aa,2023-07-17 15:18:39.584,2023-07-17 15:18:39.584,a207e727-ecc0-4925-9b3b-3337e0454a5c,door,Single,Victor,0,2.656489541576755,1.0244717418524236
6243a04cd03d0d3181112bc4,6252d3dc-8192-46f6-8e43-18103cc85dac,40.72484495217087,-73.98226017226744,Emily Tong,64b55bd6514619500e2fc431,2023-07-17 15:18:46.438,2023-07-17 15:18:46.438,b999ea07-2f6c-4cc6-99b1-da16cedba2a6,door,Single,Gavin,0,-6.83094550718207,3.0000000000000004
6243a055d03d0d3181112e02,a65e9159-2b32-4c12-ad38-b9727c4dd330,40.724695731202175,-73.98232866382783,Emily Tong,64b55be4514619500e2fc695,2023-07-17 15:19:00.596,2023-07-17 15:19:00.596,68666a14-2a26-44d7-8883-dbeb2567b31e,door,Single,Victor,0,-6.627229880918968,2.0000000000000004
6243a064d03d0d318111304f,b57acf79-5629-42a1-abfe-ff99d1f344f7,40.72461516551423,-73.9821363583643,Emily Tong,64b55be8514619500e2fc82a,2023-07-17 15:19:04.17,2023-07-17 15:19:04.17,865e9f3f-08ce-4962-bc20-8518e5e9e1cb,door,Single,Gavin,0,2.0495346786253803,2.0000000000000004
6243a078d03d0d318111329b,b88757b9-2013-4cd7-9b1f-1e3f5b44fbab,40.72428278028446,-73.98134552248726,Emily Tong,64b55bf4514619500e2fcc41,2023-07-17 15:19:16.164,2023-07-17 15:19:16.164,359c37e8-0a21-4aca-8233-647dbcc9afa2,stairs,,Gavin,0,-8.293988145321253,2.0000000000000004
6243a083d03d0d31811134f0,e5f76426-d82c-4ba7-8335-19c59630f00c,40.724215030745846,-73.98078024431341,Emily Tong,64b55c11514619500e2fda79,2023-07-17 15:19:45.678,2023-07-17 15:19:45.678,a13c7cee-06f5-4810-8731-f532e1c7af2f,door,Single,Gavin,0,2.3812974191093246,2.0000000000000004
6243a1acd03d0d31811194b7,13a88198-51b8-4a83-9244-6847c919132d,40.72404479247851,-73.98037537092218,Emily Tong,64b55c16514619500e2fdf94,2023-07-17 15:19:50.363,2023-07-17 15:19:50.363,6f5419f4-9b96-4ab6-87e7-28ebb2c5e4e3,door,Single,Gavin,0,-3.1677934942906303,2.0000000000000004
6243a1b5d03d0d3181119702,a80e0d63-e389-464a-947b-dcf3debf4a29,40.723955607306856,-73.98016361725907,Angelina,64b55bb9514619500e2fac01,2023-07-17 15:18:17.162,2023-07-17 15:18:17.162,94fa2669-4037-4cb7-8e78-efdf7ab03901,door,Single,Gavin,0,-5.205727194801767,2.0000000000000004
6243a1bdd03d0d3181119951,fd1415e5-23a9-4db2-89f0-82afb85c7d55,40.7237877309652,-73.98017020375354,Angelina,64b55bdf514619500e2fc57d,2023-07-17 15:18:55.447,2023-07-17 15:18:55.447,a71d5f37-7ee2-4b95-acc1-e4b0cc52c5d9,door,Double,Victor,0,-5.05475559412025,2.0000000000000004
6243a1c8d03d0d3181119ba1,d022fae2-1ce1-4cdc-8a38-ca24aec6a1be,40.723884155373206,-73.97999518233415,Angelina,64b55be4514619500e2fc669,2023-07-17 15:19:00.456,2023-07-17 15:19:00.456,4642fd28-2db6-4769-8fd6-b478870ee1f7,door,Single,Gavin,0,-4.635040004993495,2.0000000000000004
6243a1d0d03d0d3181119df1,41fa8853-8f9d-43a8-9b74-682a7ca6a73d,40.723846134123534,-73.97990400375002,Angelina,64b55be7514619500e2fc78b,2023-07-17 15:19:03.499,2023-07-17 15:19:03.499,6ba98d7d-24b5-4af4-a472-9950e6e64cab,stairs,,Gavin,0,-16.930482508362267,2.0000000000000004
6243a1d8d03d0d318111a043,06df8f35-a2a0-4e6a-aebe-11c73f70a6a2,40.723811515838975,-73.97982172888317,Angelina,64b55bfb514619500e2fd06c,2023-07-17 15:19:23.71,2023-07-17 15:19:23.71,305e0b1b-bcb3-4e54-a38d-9e0fc449186b,door,Single,Gavin,0,-3.2872050508873176,2.9755282581475773
6243a1f0d03d0d318111a299,a6299361-a54f-4143-9168-6aa23db72776,40.72333130738952,-73.97908980042902,Angelina,64b55c01514619500e2fd4b6,2023-07-17 15:19:29.047,2023-07-17 15:19:29.047,81a3b364-ba33-4fad-985b-01671dc7ee10,door,Single,Gavin,0,-0.8237503158061625,2.0000000000000004
6243a1fad03d0d318111a4f2,b2c27d2a-0574-4e51-9115-dfa30dbfae70,40.72340160580979,-73.97884476187716,Angelina,64b55c08514619500e2fd938,2023-07-17 15:19:36.573,2023-07-17 15:19:36.573,606931cd-acfe-4086-9c81-c35a542c31fa,door,Single,Gavin,0,-0.9532391231140275,2.0000000000000004
6243a206d03d0d318111a756,0a4088f4-0446-4754-9791-76b21a0b7697,40.72314975230554,-73.97824985105993,Angelina,64b55c12514619500e2fdaf5,2023-07-17 15:19:46.091,2023-07-17 15:19:46.091,29e5bc23-8b05-48d9-8487-d3691629c561,door,Single,Gavin,0,-5.493129492525094,2.0000000000000004
6243a20ed03d0d318111a9b6,9d02f343-1742-4833-9aea-5612800a76ff,40.72312562497095,-73.97819237122717,Angelina,64b55c16514619500e2fdf99,2023-07-17 15:19:50.39,2023-07-17 15:19:50.39,b3b5d223-e7e4-41d2-ba38-c638f6c5afdb,door,Single,Gavin,0,-1.7037258818862593,2.0000000000000004
6243a2dcd03d0d3181120c9e,1ee109f5-2725-444a-a4ca-5af1289015ea,40.7229398019359,-73.97816701519817,Angelina,64b55c19514619500e2fe46f,2023-07-17 15:19:53.894,2023-07-17 15:19:53.894,d1740641-88c5-449d-948b-6cabfb6bfcd7,door,Single,Victor,0,-5.34879191225876,2.0000000000000004
6243a30ad03d0d3181120f00,649a4e7f-29c4-4e32-89ed-ac9a485e36ed,40.72280093723793,-73.97783943470932,Angelina,64b55c1e514619500e2fe575,2023-07-17 15:19:58.061,2023-07-17 15:19:58.061,f8469b83-4f1b-4e25-840f-16d3187ce56a,door,Double,Victor,0,3.037209860940946,2.0000000000000004
